$GNRMC,014432.00,A,4308.03380,N,14113.36629,E,0.147,,180119,,,A*65
$GNRMC,014433.00,A,4308.03347,N,14113.36591,E,0.588,,180119,,,A*68
$GNRMC,014434.00,A,4308.03323,N,14113.36619,E,0.148,,180119,,,A*66
$GNRMC,014435.00,A,4308.03300,N,14113.36719,E,0.118,,180119,,,A*62
$GNRMC,014453.00,A,4308.01505,N,14113.37340,E,0.067,,180119,,,A*63
$GNRMC,014454.00,A,4308.01446,N,14113.37346,E,0.053,,180119,,,A*63
$GNRMC,014455.00,A,4308.01393,N,14113.37345,E,0.046,,180119,,,A*6A
$GNRMC,014456.00,A,4308.01333,N,14113.37350,E,0.036,,180119,,,A*60
$GNRMC,014457.00,A,4308.01282,N,14113.37357,E,0.043,,180119,,,A*6F
$GNRMC,014458.00,A,4308.01244,N,14113.37364,E,0.046,,180119,,,A*6F
$GNRMC,014459.00,A,4308.01209,N,14113.37363,E,0.014,,180119,,,A*67
$GNRMC,014500.00,A,4308.01173,N,14113.37375,E,0.041,,180119,,,A*63
$GNRMC,014501.00,A,4308.01131,N,14113.37390,E,0.063,,180119,,,A*6F
$GNRMC,014502.00,A,4308.01090,N,14113.37404,E,0.063,,180119,,,A*6C
$GNRMC,014503.00,A,4308.01050,N,14113.37417,E,0.057,,180119,,,A*64
$GNRMC,014504.00,A,4308.01018,N,14113.37432,E,0.056,,180119,,,A*69
$GNRMC,014519.00,A,4308.00875,N,14113.37100,E,0.139,,180119,,,A*6B
$GNRMC,014520.00,A,4308.00871,N,14113.37032,E,0.089,,180119,,,A*6F
$GNRMC,014521.00,A,4308.00875,N,14113.36976,E,0.069,,180119,,,A*6C
$GNRMC,014522.00,A,4308.00880,N,14113.36945,E,0.025,,180119,,,A*6D
$GNRMC,014523.00,A,4308.00879,N,14113.36905,E,0.029,,180119,,,A*62
$GNRMC,014524.00,A,4308.00886,N,14113.36868,E,0.029,,180119,,,A*6F
$GNRMC,014525.00,A,4308.00895,N,14113.36836,E,0.043,,180119,,,A*6B
$GNRMC,014526.00,A,4308.00902,N,14113.36810,E,0.120,,180119,,,A*67
$GNRMC,014527.00,A,4308.00904,N,14113.36804,E,0.274,,180119,,,A*67
$GNRMC,014528.00,A,4308.00917,N,14113.36779,E,0.937,310.09,180119,,,A*76
$GNRMC,014529.00,A,4308.00922,N,14113.36769,E,0.468,,180119,,,A*62
$GNRMC,014544.00,A,4308.01002,N,14113.37011,E,2.222,25.02,180119,,,A*4B
$GNRMC,014545.00,A,4308.01110,N,14113.36879,E,2.678,13.07,180119,,,A*44
$GNRMC,014546.00,A,4308.01120,N,14113.36785,E,3.035,1.32,180119,,,A*73
$GNRMC,014547.00,A,4308.01140,N,14113.36645,E,2.552,355.19,180119,,,A*77
$GNRMC,014548.00,A,4308.01187,N,14113.36565,E,3.395,349.35,180119,,,A*7D
$GNRMC,014549.00,A,4308.01259,N,14113.36479,E,3.402,340.49,180119,,,A*7B
$GNRMC,014550.00,A,4308.01329,N,14113.36416,E,3.547,332.73,180119,,,A*70
$GNRMC,014551.00,A,4308.01394,N,14113.36335,E,3.446,326.67,180119,,,A*71
$GNRMC,014552.00,A,4308.01467,N,14113.36246,E,3.655,320.85,180119,,,A*76
$GNRMC,014553.00,A,4308.01536,N,14113.36143,E,3.629,313.76,180119,,,A*73
$GNRMC,014608.00,A,4308.02299,N,14113.34499,E,3.538,311.31,180119,,,A*7D
$GNRMC,014609.00,A,4308.02368,N,14113.34390,E,3.853,309.80,180119,,,A*7E
$GNRMC,014610.00,A,4308.02434,N,14113.34271,E,3.937,307.41,180119,,,A*76
$GNRMC,014611.00,A,4308.02496,N,14113.34147,E,4.009,305.71,180119,,,A*7B
$GNRMC,014612.00,A,4308.02556,N,14113.34020,E,4.035,304.07,180119,,,A*7A
$GNRMC,014613.00,A,4308.02616,N,14113.33884,E,4.201,300.41,180119,,,A*7E
$GNRMC,014614.00,A,4308.02675,N,14113.33751,E,4.080,301.39,180119,,,A*7E
$GNRMC,014615.00,A,4308.02737,N,14113.33617,E,4.113,301.10,180119,,,A*7B
$GNRMC,014616.00,A,4308.02798,N,14113.33488,E,3.958,301.54,180119,,,A*79
$GNRMC,014617.00,A,4308.02862,N,14113.33361,E,4.067,302.18,180119,,,A*7B
$GNRMC,014632.00,A,4308.03767,N,14113.31437,E,4.004,305.52,180119,,,A*7D
$GNRMC,014633.00,A,4308.03829,N,14113.31309,E,4.100,304.70,180119,,,A*77
$GNRMC,014634.00,A,4308.03894,N,14113.31178,E,4.216,305.47,180119,,,A*73
$GNRMC,014635.00,A,4308.03957,N,14113.31049,E,4.009,303.30,180119,,,A*75
$GNRMC,014636.00,A,4308.04018,N,14113.30915,E,4.303,303.16,180119,,,A*7F
$GNRMC,014637.00,A,4308.04084,N,14113.30781,E,4.230,303.95,180119,,,A*72
$GNRMC,014638.00,A,4308.04148,N,14113.30653,E,3.983,303.34,180119,,,A*7D
$GNRMC,014639.00,A,4308.04206,N,14113.30525,E,4.006,302.27,180119,,,A*77
$GNRMC,014640.00,A,4308.04265,N,14113.30395,E,4.022,300.97,180119,,,A*7E
$GNRMC,014654.00,A,4308.04038,N,14113.28627,E,3.674,205.61,180119,,,A*7B
$GNRMC,014655.00,A,4308.03940,N,14113.28567,E,3.925,203.89,180119,,,A*77
$GNRMC,014656.00,A,4308.03835,N,14113.28506,E,4.125,202.77,180119,,,A*7F
$GNRMC,014657.00,A,4308.03727,N,14113.28445,E,4.156,202.19,180119,,,A*78
$GNRMC,014658.00,A,4308.03618,N,14113.28384,E,4.183,201.78,180119,,,A*7C
$GNRMC,014659.00,A,4308.03511,N,14113.28321,E,4.210,203.24,180119,,,A*7A
$GNRMC,014700.00,A,4308.03407,N,14113.28258,E,3.970,203.77,180119,,,A*72
$GNRMC,014701.00,A,4308.03307,N,14113.28194,E,3.937,205.05,180119,,,A*77
$GNRMC,014702.00,A,4308.03211,N,14113.28128,E,3.802,206.41,180119,,,A*71
$GNRMC,014716.00,A,4308.02866,N,14113.27912,E,1.255,327.73,180119,,,A*78
$GNRMC,014717.00,A,4308.02877,N,14113.27898,E,0.327,326.75,180119,,,A*78
$GNRMC,014718.00,A,4308.02867,N,14113.27918,E,0.947,107.51,180119,,,A*74
$GNRMC,014719.00,A,4308.02845,N,14113.27960,E,1.475,121.51,180119,,,A*73
$GNRMC,014720.00,A,4308.02817,N,14113.28011,E,1.677,124.08,180119,,,A*77
$GNRMC,014721.00,A,4308.02793,N,14113.28059,E,1.407,122.77,180119,,,A*72
$GNRMC,014722.00,A,4308.02788,N,14113.28071,E,0.147,,180119,,,A*6E
$GNRMC,014723.00,A,4308.02787,N,14113.28071,E,0.010,,180119,,,A*63
$GNRMC,014724.00,A,4308.02786,N,14113.28073,E,0.024,,180119,,,A*60
$GNRMC,014739.00,A,4308.02770,N,14113.28109,E,0.003,,180119,,,A*6C
$GNRMC,014740.00,A,4308.02769,N,14113.28111,E,0.023,,180119,,,A*61
$GNRMC,014741.00,A,4308.02769,N,14113.28113,E,0.030,,180119,,,A*60
$GNRMC,014742.00,A,4308.02768,N,14113.28113,E,0.010,,180119,,,A*60
$GNRMC,014743.00,A,4308.02767,N,14113.28114,E,0.016,,180119,,,A*6F
$GNRMC,014744.00,A,4308.02769,N,14113.28115,E,0.037,,180119,,,A*64
$GNRMC,014745.00,A,4308.02770,N,14113.28116,E,0.021,,180119,,,A*69
$GNRMC,014746.00,A,4308.02771,N,14113.28118,E,0.020,,180119,,,A*64
$GNRMC,014747.00,A,4308.02772,N,14113.28118,E,0.008,,180119,,,A*6C
$GNRMC,014801.00,A,4308.02755,N,14113.28121,E,0.006,,180119,,,A*60
$GNRMC,014802.00,A,4308.02754,N,14113.28121,E,0.012,,180119,,,A*67
$GNRMC,014803.00,A,4308.02753,N,14113.28121,E,0.003,,180119,,,A*61
$GNRMC,014804.00,A,4308.02752,N,14113.28121,E,0.009,,180119,,,A*6D
$GNRMC,014805.00,A,4308.02751,N,14113.28121,E,0.003,,180119,,,A*65
$GNRMC,014806.00,A,4308.02751,N,14113.28120,E,0.015,,180119,,,A*60
$GNRMC,014807.00,A,4308.02751,N,14113.28120,E,0.009,,180119,,,A*6C
$GNRMC,014808.00,A,4308.02751,N,14113.28120,E,0.007,,180119,,,A*6D
$GNRMC,014809.00,A,4308.02751,N,14113.28119,E,0.015,,180119,,,A*65
$GNRMC,014824.00,A,4308.02771,N,14113.28124,E,0.008,,180119,,,A*6A
$GNRMC,014825.00,A,4308.02770,N,14113.28124,E,0.012,,180119,,,A*61
$GNRMC,014826.00,A,4308.02772,N,14113.28124,E,0.017,,180119,,,A*65
$GNRMC,014827.00,A,4308.02774,N,14113.28124,E,0.010,,180119,,,A*65
$GNRMC,014828.00,A,4308.02776,N,14113.28124,E,0.010,,180119,,,A*68
$GNRMC,014829.00,A,4308.02778,N,14113.28124,E,0.013,,180119,,,A*64
$GNRMC,014830.00,A,4308.02779,N,14113.28124,E,0.004,,180119,,,A*6B
$GNRMC,014831.00,A,4308.02780,N,14113.28124,E,0.005,,180119,,,A*6D
$GNRMC,014832.00,A,4308.02781,N,14113.28124,E,0.012,,180119,,,A*69
$GNRMC,014833.00,A,4308.02783,N,14113.28124,E,0.004,,180119,,,A*6D
$GNRMC,014848.00,A,4308.02758,N,14113.28104,E,0.014,,180119,,,A*64
$GNRMC,014849.00,A,4308.02759,N,14113.28102,E,0.020,,180119,,,A*65
$GNRMC,014850.00,A,4308.02760,N,14113.28102,E,0.005,,180119,,,A*60
$GNRMC,014851.00,A,4308.02761,N,14113.28102,E,0.006,,180119,,,A*63
$GNRMC,014852.00,A,4308.02762,N,14113.28102,E,0.016,,180119,,,A*62
$GNRMC,014853.00,A,4308.02762,N,14113.28102,E,0.007,,180119,,,A*63
$GNRMC,014854.00,A,4308.02761,N,14113.28101,E,0.007,,180119,,,A*64
$GNRMC,014855.00,A,4308.02759,N,14113.28099,E,0.009,,180119,,,A*60
$GNRMC,014856.00,A,4308.02757,N,14113.28098,E,0.010,,180119,,,A*64
$GNRMC,014857.00,A,4308.02755,N,14113.28097,E,0.012,,180119,,,A*6A
$GNRMC,014912.00,A,4308.02742,N,14113.28088,E,0.002,,180119,,,A*63
$GNRMC,014913.00,A,4308.02744,N,14113.28087,E,0.025,,180119,,,A*6E
$GNRMC,014914.00,A,4308.02744,N,14113.28085,E,0.030,,180119,,,A*6F
$GNRMC,014915.00,A,4308.02745,N,14113.28084,E,0.006,,180119,,,A*6B
$GNRMC,014916.00,A,4308.02746,N,14113.28083,E,0.029,,180119,,,A*61
$GNRMC,014917.00,A,4308.02746,N,14113.28082,E,0.004,,180119,,,A*6E
$GNRMC,014918.00,A,4308.02746,N,14113.28080,E,0.004,,180119,,,A*63
$GNRMC,014919.00,A,4308.02746,N,14113.28079,E,0.008,,180119,,,A*68
$GNRMC,014920.00,A,4308.02746,N,14113.28078,E,0.012,,180119,,,A*68
$GNRMC,014921.00,A,4308.02746,N,14113.28076,E,0.009,,180119,,,A*6D
$GNRMC,014935.00,A,4308.02585,N,14113.28406,E,1.200,123.55,180119,,,A*72
$GNRMC,014936.00,A,4308.02566,N,14113.28450,E,1.359,123.51,180119,,,A*76
$GNRMC,014937.00,A,4308.02547,N,14113.28499,E,1.458,120.54,180119,,,A*71
$GNRMC,014938.00,A,4308.02523,N,14113.28555,E,1.807,120.99,180119,,,A*7A
$GNRMC,014939.00,A,4308.02497,N,14113.28618,E,1.974,120.63,180119,,,A*7F
$GNRMC,014940.00,A,4308.02468,N,14113.28687,E,2.110,120.10,180119,,,A*7A
$GNRMC,014941.00,A,4308.02440,N,14113.28750,E,1.822,120.80,180119,,,A*78
$GNRMC,014942.00,A,4308.02413,N,14113.28811,E,1.863,120.82,180119,,,A*70
$GNRMC,014943.00,A,4308.02385,N,14113.28877,E,2.039,120.79,180119,,,A*79
$GNRMC,014958.00,A,4308.02251,N,14113.29310,E,1.365,111.63,180119,,,A*70
$GNRMC,014959.00,A,4308.02237,N,14113.29357,E,1.262,111.88,180119,,,A*71
$GNRMC,015000.00,A,4308.02220,N,14113.29404,E,1.409,116.11,180119,,,A*7E
$GNRMC,015001.00,A,4308.02205,N,14113.29450,E,1.242,113.56,180119,,,A*76
$GNRMC,015002.00,A,4308.02191,N,14113.29493,E,1.168,115.19,180119,,,A*72
$GNRMC,015003.00,A,4308.02174,N,14113.29539,E,1.371,116.34,180119,,,A*7F
$GNRMC,015004.00,A,4308.02159,N,14113.29581,E,1.223,117.64,180119,,,A*76
$GNRMC,015005.00,A,4308.02142,N,14113.29620,E,1.212,121.61,180119,,,A*77
$GNRMC,015006.00,A,4308.02129,N,14113.29661,E,1.181,116.39,180119,,,A*7C
$GNRMC,015020.00,A,4308.01908,N,14113.30227,E,1.040,120.70,180119,,,A*7A
$GNRMC,015021.00,A,4308.01894,N,14113.30264,E,1.129,118.96,180119,,,A*75
$GNRMC,015022.00,A,4308.01877,N,14113.30305,E,1.288,121.25,180119,,,A*77
$GNRMC,015023.00,A,4308.01861,N,14113.30343,E,1.104,120.74,180119,,,A*71
$GNRMC,015024.00,A,4308.01843,N,14113.30379,E,1.126,122.12,180119,,,A*7D
$GNRMC,015025.00,A,4308.01826,N,14113.30412,E,1.054,122.76,180119,,,A*73
$GNRMC,015026.00,A,4308.01813,N,14113.30443,E,0.929,120.25,180119,,,A*74
$GNRMC,015027.00,A,4308.01798,N,14113.30477,E,1.103,121.13,180119,,,A*7B
$GNRMC,015028.00,A,4308.01785,N,14113.30511,E,0.963,117.93,180119,,,A*7B
$GNRMC,015042.00,A,4308.01539,N,14113.31067,E,1.123,119.54,180119,,,A*7F
$GNRMC,015043.00,A,4308.01522,N,14113.31104,E,1.110,121.55,180119,,,A*7A
$GNRMC,015044.00,A,4308.01511,N,14113.31141,E,1.049,115.27,180119,,,A*73
$GNRMC,015045.00,A,4308.01500,N,14113.31175,E,0.965,116.67,180119,,,A*74
$GNRMC,015046.00,A,4308.01489,N,14113.31203,E,0.780,117.49,180119,,,A*7D
$GNRMC,015047.00,A,4308.01479,N,14113.31228,E,0.720,119.54,180119,,,A*72
$GNRMC,015048.00,A,4308.01470,N,14113.31257,E,0.880,115.37,180119,,,A*70
$GNRMC,015049.00,A,4308.01462,N,14113.31287,E,0.807,115.01,180119,,,A*75
$GNRMC,015050.00,A,4308.01453,N,14113.31318,E,0.872,114.87,180119,,,A*75
$GNRMC,015104.00,A,4308.01187,N,14113.31962,E,1.051,117.72,180119,,,A*7F
$GNRMC,015105.00,A,4308.01171,N,14113.32003,E,1.263,116.73,180119,,,A*79
$GNRMC,015106.00,A,4308.01153,N,14113.32047,E,1.324,116.18,180119,,,A*75
$GNRMC,015107.00,A,4308.01137,N,14113.32090,E,1.331,118.11,180119,,,A*7F
$GNRMC,015108.00,A,4308.01119,N,14113.32136,E,1.355,116.11,180119,,,A*7D
$GNRMC,015109.00,A,4308.01101,N,14113.32181,E,1.387,117.34,180119,,,A*70
$GNRMC,015110.00,A,4308.01083,N,14113.32228,E,1.397,117.49,180119,,,A*78
$GNRMC,015111.00,A,4308.01064,N,14113.32276,E,1.501,117.12,180119,,,A*7C
$GNRMC,015112.00,A,4308.01045,N,14113.32325,E,1.475,118.17,180119,,,A*73
$GNRMC,015127.00,A,4308.00752,N,14113.33031,E,1.497,119.58,180119,,,A*74
$GNRMC,015128.00,A,4308.00730,N,14113.33073,E,1.160,121.50,180119,,,A*77
$GNRMC,015129.00,A,4308.00711,N,14113.33115,E,1.291,119.76,180119,,,A*76
$GNRMC,015130.00,A,4308.00691,N,14113.33157,E,1.396,122.87,180119,,,A*71
$GNRMC,015131.00,A,4308.00670,N,14113.33199,E,1.486,126.06,180119,,,A*76
$GNRMC,015132.00,A,4308.00649,N,14113.33239,E,1.262,125.59,180119,,,A*73
$GNRMC,015133.00,A,4308.00631,N,14113.33281,E,1.378,123.14,180119,,,A*7B
$GNRMC,015134.00,A,4308.00612,N,14113.33320,E,1.225,126.70,180119,,,A*79
$GNRMC,015135.00,A,4308.00593,N,14113.33361,E,1.334,124.04,180119,,,A*77
$GNRMC,015150.00,A,4308.00574,N,14113.33664,E,1.172,222.84,180119,,,A*70
$GNRMC,015151.00,A,4308.00550,N,14113.33630,E,1.190,226.87,180119,,,A*7D
$GNRMC,015152.00,A,4308.00525,N,14113.33599,E,1.159,222.90,180119,,,A*7B
$GNRMC,015153.00,A,4308.00491,N,14113.33566,E,1.621,215.35,180119,,,A*77
$GNRMC,015154.00,A,4308.00458,N,14113.33544,E,1.225,210.03,180119,,,A*75
$GNRMC,015155.00,A,4308.00424,N,14113.33530,E,1.278,199.93,180119,,,A*7F
$GNRMC,015156.00,A,4308.00389,N,14113.33526,E,1.227,189.31,180119,,,A*78
$GNRMC,015157.00,A,4308.00357,N,14113.33527,E,1.209,182.29,180119,,,A*75
$GNRMC,015158.00,A,4308.00354,N,14113.33528,E,0.330,191.71,180119,,,A*73
$GNRMC,015212.00,A,4308.00603,N,14113.33389,E,0.804,316.14,180119,,,A*76
$GNRMC,015213.00,A,4308.00619,N,14113.33364,E,0.948,312.03,180119,,,A*74
$GNRMC,015214.00,A,4308.00637,N,14113.33337,E,1.026,310.37,180119,,,A*7C
$GNRMC,015215.00,A,4308.00653,N,14113.33310,E,0.938,309.20,180119,,,A*73
$GNRMC,015216.00,A,4308.00666,N,14113.33284,E,0.918,305.99,180119,,,A*76
$GNRMC,015217.00,A,4308.00680,N,14113.33254,E,1.024,304.11,180119,,,A*74
$GNRMC,015219.00,A,4308.00709,N,14113.33186,E,1.001,300.40,180119,,,A*71
$GNRMC,015220.00,A,4308.00724,N,14113.33151,E,1.072,298.67,180119,,,A*7F
$GNRMC,015235.00,A,4308.00977,N,14113.32560,E,1.352,297.41,180119,,,A*7E
$GNRMC,015236.00,A,4308.00994,N,14113.32516,E,1.284,297.62,180119,,,A*7A
$GNRMC,015237.00,A,4308.01013,N,14113.32472,E,1.339,298.64,180119,,,A*71
$GNRMC,015238.00,A,4308.01032,N,14113.32429,E,1.265,299.63,180119,,,A*7D
$GNRMC,015239.00,A,4308.01044,N,14113.32398,E,0.791,297.64,180119,,,A*76
$GNRMC,015240.00,A,4308.01053,N,14113.32375,E,0.666,298.56,180119,,,A*7A
$GNRMC,015241.00,A,4308.01063,N,14113.32350,E,0.752,296.48,180119,,,A*78
$GNRMC,015242.00,A,4308.01075,N,14113.32322,E,0.849,300.47,180119,,,A*7D
$GNRMC,015243.00,A,4308.01088,N,14113.32290,E,0.969,299.64,180119,,,A*75
$GNRMC,015258.00,A,4308.01260,N,14113.31912,E,0.628,300.70,180119,,,A*77
$GNRMC,015259.00,A,4308.01269,N,14113.31893,E,0.577,302.00,180119,,,A*7B
$GNRMC,015300.00,A,4308.01278,N,14113.31878,E,0.495,303.78,180119,,,A*70
$GNRMC,015301.00,A,4308.01286,N,14113.31860,E,0.569,300.65,180119,,,A*74
$GNRMC,015302.00,A,4308.01297,N,14113.31837,E,0.696,299.54,180119,,,A*75
$GNRMC,015303.00,A,4308.01313,N,14113.31805,E,1.133,302.27,180119,,,A*76
$GNRMC,015304.00,A,4308.01328,N,14113.31771,E,1.005,301.30,180119,,,A*74
$GNRMC,015305.00,A,4308.01340,N,14113.31735,E,1.101,297.51,180119,,,A*77
$GNRMC,015306.00,A,4308.01355,N,14113.31697,E,1.129,298.09,180119,,,A*71
$GNRMC,015320.00,A,4308.01597,N,14113.31114,E,1.260,302.00,180119,,,A*74
$GNRMC,015321.00,A,4308.01615,N,14113.31071,E,1.267,300.39,180119,,,A*71
$GNRMC,015322.00,A,4308.01634,N,14113.31031,E,1.181,301.52,180119,,,A*72
$GNRMC,015323.00,A,4308.01650,N,14113.30990,E,1.197,298.56,180119,,,A*70
$GNRMC,015324.00,A,4308.01669,N,14113.30948,E,1.297,301.20,180119,,,A*7B
$GNRMC,015325.00,A,4308.01688,N,14113.30906,E,1.260,300.88,180119,,,A*74
$GNRMC,015326.00,A,4308.01706,N,14113.30867,E,1.160,301.13,180119,,,A*76
$GNRMC,015327.00,A,4308.01722,N,14113.30829,E,1.169,301.23,180119,,,A*71
$GNRMC,015328.00,A,4308.01739,N,14113.30789,E,1.197,300.42,180119,,,A*76
$GNRMC,015343.00,A,4308.01894,N,14113.30445,E,0.011,,180119,,,A*65
$GNRMC,015344.00,A,4308.01893,N,14113.30445,E,0.037,,180119,,,A*61
$GNRMC,015345.00,A,4308.01894,N,14113.30444,E,0.011,,180119,,,A*62
$GNRMC,015346.00,A,4308.01895,N,14113.30442,E,0.035,,180119,,,A*60
$GNRMC,015347.00,A,4308.01897,N,14113.30441,E,0.004,,180119,,,A*62
$GNRMC,015348.00,A,4308.01899,N,14113.30439,E,0.021,,180119,,,A*6B
$GNRMC,015349.00,A,4308.01899,N,14113.30438,E,0.011,,180119,,,A*68
$GNRMC,015350.00,A,4308.01899,N,14113.30437,E,0.017,,180119,,,A*69
$GNRMC,015351.00,A,4308.01898,N,14113.30437,E,0.022,,180119,,,A*6F
$GNRMC,015352.00,A,4308.01895,N,14113.30438,E,0.014,,180119,,,A*6B
$GNRMC,015407.00,A,4308.01988,N,14113.30240,E,1.060,298.29,180119,,,A*7C
$GNRMC,015408.00,A,4308.02002,N,14113.30208,E,1.006,299.93,180119,,,A*77
$GNRMC,015409.00,A,4308.02016,N,14113.30175,E,1.043,299.90,180119,,,A*78
$GNRMC,015410.00,A,4308.02028,N,14113.30142,E,0.979,297.43,180119,,,A*78
$GNRMC,015411.00,A,4308.02038,N,14113.30105,E,1.052,292.01,180119,,,A*79
$GNRMC,015412.00,A,4308.02052,N,14113.30068,E,1.144,296.66,180119,,,A*7F
$GNRMC,015413.00,A,4308.02066,N,14113.30030,E,1.179,297.28,180119,,,A*71
$GNRMC,015414.00,A,4308.02083,N,14113.29990,E,1.275,299.97,180119,,,A*73
$GNRMC,015415.00,A,4308.02097,N,14113.29950,E,1.171,295.95,180119,,,A*72
$GNRMC,015429.00,A,4308.02331,N,14113.29400,E,0.978,302.76,180119,,,A*78
$GNRMC,015430.00,A,4308.02344,N,14113.29367,E,1.069,301.44,180119,,,A*7E
$GNRMC,015431.00,A,4308.02355,N,14113.29338,E,0.812,300.57,180119,,,A*73
$GNRMC,015432.00,A,4308.02363,N,14113.29316,E,0.647,299.77,180119,,,A*74
$GNRMC,015433.00,A,4308.02373,N,14113.29291,E,0.856,301.45,180119,,,A*75
$GNRMC,015434.00,A,4308.02385,N,14113.29264,E,0.892,302.37,180119,,,A*7F
$GNRMC,015435.00,A,4308.02398,N,14113.29234,E,0.977,301.84,180119,,,A*76
$GNRMC,015436.00,A,4308.02409,N,14113.29198,E,1.105,296.94,180119,,,A*7D
$GNRMC,015437.00,A,4308.02423,N,14113.29155,E,1.325,296.30,180119,,,A*7B
$GNRMC,015451.00,A,4308.02674,N,14113.28608,E,0.758,299.79,180119,,,A*78
$GNRMC,015452.00,A,4308.02675,N,14113.28602,E,0.008,,180119,,,A*60
$GNRMC,015453.00,A,4308.02674,N,14113.28603,E,0.019,,180119,,,A*61
$GNRMC,015454.00,A,4308.02676,N,14113.28599,E,0.237,,180119,,,A*6A
$GNRMC,015455.00,A,4308.02680,N,14113.28589,E,0.387,300.21,180119,,,A*77
$GNRMC,015456.00,A,4308.02682,N,14113.28581,E,0.200,,180119,,,A*6E
$GNRMC,015457.00,A,4308.02687,N,14113.28571,E,0.390,300.35,180119,,,A*76
$GNRMC,015458.00,A,4308.02691,N,14113.28559,E,0.348,299.95,180119,,,A*7A
$GNRMC,015459.00,A,4308.02698,N,14113.28541,E,0.568,300.89,180119,,,A*73
$GNRMC,015513.00,A,4308.02640,N,14113.27992,E,1.415,20.23,180119,,,A*4F
$GNRMC,015514.00,A,4308.02674,N,14113.28027,E,1.537,30.90,180119,,,A*4F
$GNRMC,015515.00,A,4308.02703,N,14113.28059,E,1.342,34.89,180119,,,A*4E
$GNRMC,015516.00,A,4308.02739,N,14113.28087,E,1.583,30.26,180119,,,A*4D
$GNRMC,015517.00,A,4308.02781,N,14113.28104,E,1.545,23.42,180119,,,A*4F
$GNRMC,015518.00,A,4308.02823,N,14113.28110,E,1.602,13.52,180119,,,A*40
$GNRMC,015519.00,A,4308.02866,N,14113.28107,E,1.622,2.83,180119,,,A*78
$GNRMC,015520.00,A,4308.02904,N,14113.28094,E,1.405,354.59,180119,,,A*7C
$GNRMC,015521.00,A,4308.02938,N,14113.28072,E,1.362,344.15,180119,,,A*75
$GNRMC,015536.00,A,4308.02996,N,14113.28027,E,0.018,,180119,,,A*61
$GNRMC,015537.00,A,4308.02996,N,14113.28026,E,0.023,,180119,,,A*69
$GNRMC,015538.00,A,4308.02998,N,14113.28026,E,0.013,,180119,,,A*6B
$GNRMC,015539.00,A,4308.03001,N,14113.28026,E,0.017,,180119,,,A*66
$GNRMC,015540.00,A,4308.03003,N,14113.28026,E,0.008,,180119,,,A*64
$GNRMC,015541.00,A,4308.03005,N,14113.28027,E,0.008,,180119,,,A*62
$GNRMC,015542.00,A,4308.03008,N,14113.28027,E,0.013,,180119,,,A*66
$GNRMC,015543.00,A,4308.03011,N,14113.28027,E,0.004,,180119,,,A*69
$GNRMC,015544.00,A,4308.03013,N,14113.28027,E,0.025,,180119,,,A*6F
$GNRMC,015545.00,A,4308.03012,N,14113.28026,E,0.019,,180119,,,A*61
$GNRMC,015600.00,A,4308.03000,N,14113.28028,E,0.007,,180119,,,A*61
$GNRMC,015601.00,A,4308.02998,N,14113.28028,E,0.003,,180119,,,A*6D
$GNRMC,015602.00,A,4308.02995,N,14113.28028,E,0.010,,180119,,,A*61
$GNRMC,015603.00,A,4308.02994,N,14113.28029,E,0.003,,180119,,,A*62
$GNRMC,015604.00,A,4308.02992,N,14113.28029,E,0.008,,180119,,,A*68
$GNRMC,015605.00,A,4308.02992,N,14113.28029,E,0.012,,180119,,,A*62
$GNRMC,015606.00,A,4308.02991,N,14113.28029,E,0.009,,180119,,,A*68
$GNRMC,015607.00,A,4308.02989,N,14113.28029,E,0.004,,180119,,,A*6D
$GNRMC,015608.00,A,4308.02988,N,14113.28028,E,0.016,,180119,,,A*61
$GNRMC,015623.00,A,4308.02978,N,14113.28031,E,0.007,,180119,,,A*6F
$GNRMC,015624.00,A,4308.02978,N,14113.28029,E,0.017,,180119,,,A*60
$GNRMC,015625.00,A,4308.02979,N,14113.28028,E,0.016,,180119,,,A*60
$GNRMC,015626.00,A,4308.02979,N,14113.28027,E,0.008,,180119,,,A*63
$GNRMC,015627.00,A,4308.02979,N,14113.28026,E,0.007,,180119,,,A*6C
$GNRMC,015628.00,A,4308.02979,N,14113.28026,E,0.004,,180119,,,A*60
$GNRMC,015629.00,A,4308.02980,N,14113.28026,E,0.014,,180119,,,A*66
$GNRMC,015630.00,A,4308.02980,N,14113.28026,E,0.008,,180119,,,A*63
$GNRMC,015631.00,A,4308.02980,N,14113.28026,E,0.012,,180119,,,A*69
$GNRMC,015646.00,A,4308.02985,N,14113.28017,E,0.016,,180119,,,A*6A
$GNRMC,015647.00,A,4308.02985,N,14113.28016,E,0.012,,180119,,,A*6E
$GNRMC,015648.00,A,4308.02984,N,14113.28015,E,0.004,,180119,,,A*64
$GNRMC,015649.00,A,4308.02982,N,14113.28014,E,0.006,,180119,,,A*60
$GNRMC,015650.00,A,4308.02980,N,14113.28015,E,0.004,,180119,,,A*69
$GNRMC,015651.00,A,4308.02977,N,14113.28015,E,0.023,,180119,,,A*65
$GNRMC,015652.00,A,4308.02974,N,14113.28015,E,0.005,,180119,,,A*61
$GNRMC,015653.00,A,4308.02972,N,14113.28015,E,0.012,,180119,,,A*60
$GNRMC,015654.00,A,4308.02970,N,14113.28015,E,0.007,,180119,,,A*61
$GNRMC,015708.00,A,4308.02970,N,14113.28038,E,0.010,,180119,,,A*60
$GNRMC,015709.00,A,4308.02970,N,14113.28040,E,0.008,,180119,,,A*67
$GNRMC,015710.00,A,4308.02970,N,14113.28043,E,0.013,,180119,,,A*66
$GNRMC,015711.00,A,4308.02971,N,14113.28045,E,0.008,,180119,,,A*6A
$GNRMC,015712.00,A,4308.02973,N,14113.28046,E,0.008,,180119,,,A*68
$GNRMC,015713.00,A,4308.02972,N,14113.28050,E,0.003,,180119,,,A*64
$GNRMC,015714.00,A,4308.02971,N,14113.28053,E,0.013,,180119,,,A*62
$GNRMC,015715.00,A,4308.02970,N,14113.28056,E,0.006,,180119,,,A*63
$GNRMC,015716.00,A,4308.02969,N,14113.28058,E,0.007,,180119,,,A*67
$GNRMC,015731.00,A,4308.02957,N,14113.28059,E,0.003,,180119,,,A*6A
$GNRMC,015732.00,A,4308.02958,N,14113.28056,E,0.007,,180119,,,A*6D
$GNRMC,015733.00,A,4308.02959,N,14113.28053,E,0.020,,180119,,,A*6D
$GNRMC,015734.00,A,4308.02960,N,14113.28050,E,0.013,,180119,,,A*63
$GNRMC,015735.00,A,4308.02961,N,14113.28047,E,0.004,,180119,,,A*63
$GNRMC,015736.00,A,4308.02962,N,14113.28044,E,0.019,,180119,,,A*6C
$GNRMC,015737.00,A,4308.02963,N,14113.28042,E,0.001,,180119,,,A*63
$GNRMC,015738.00,A,4308.02964,N,14113.28039,E,0.009,,180119,,,A*6F
$GNRMC,015739.00,A,4308.02965,N,14113.28038,E,0.005,,180119,,,A*62
$GNRMC,015754.00,A,4308.02972,N,14113.28050,E,0.013,,180119,,,A*66
$GNRMC,015755.00,A,4308.02973,N,14113.28051,E,0.015,,180119,,,A*61
$GNRMC,015756.00,A,4308.02973,N,14113.28051,E,0.024,,180119,,,A*60
$GNRMC,015757.00,A,4308.02973,N,14113.28051,E,0.003,,180119,,,A*64
$GNRMC,015758.00,A,4308.02973,N,14113.28050,E,0.018,,180119,,,A*60
$GNRMC,015759.00,A,4308.02972,N,14113.28051,E,0.009,,180119,,,A*61
$GNRMC,015800.00,A,4308.02971,N,14113.28051,E,0.007,,180119,,,A*6F
$GNRMC,015801.00,A,4308.02970,N,14113.28051,E,0.016,,180119,,,A*6F
$GNRMC,015802.00,A,4308.02968,N,14113.28052,E,0.015,,180119,,,A*65
$GNRMC,015816.00,A,4308.02953,N,14113.28061,E,0.013,,180119,,,A*6E
$GNRMC,015817.00,A,4308.02953,N,14113.28061,E,0.003,,180119,,,A*6E
$GNRMC,015818.00,A,4308.02953,N,14113.28061,E,0.023,,180119,,,A*63
$GNRMC,015819.00,A,4308.02953,N,14113.28062,E,0.013,,180119,,,A*62
$GNRMC,015820.00,A,4308.02953,N,14113.28061,E,0.020,,180119,,,A*6B
$GNRMC,015821.00,A,4308.02953,N,14113.28061,E,0.011,,180119,,,A*68
$GNRMC,015822.00,A,4308.02953,N,14113.28062,E,0.008,,180119,,,A*60
$GNRMC,015823.00,A,4308.02953,N,14113.28063,E,0.030,,180119,,,A*6B
$GNRMC,015824.00,A,4308.02953,N,14113.28064,E,0.008,,180119,,,A*60
$GNRMC,015839.00,A,4308.02950,N,14113.28069,E,0.011,,180119,,,A*6A
$GNRMC,015840.00,A,4308.02948,N,14113.28070,E,0.017,,180119,,,A*63
$GNRMC,015841.00,A,4308.02943,N,14113.28084,E,0.538,106.90,180119,,,A*7A
$GNRMC,015842.00,A,4308.02930,N,14113.28108,E,0.849,122.39,180119,,,A*76
$GNRMC,015843.00,A,4308.02916,N,14113.28138,E,0.951,123.00,180119,,,A*73
$GNRMC,015844.00,A,4308.02901,N,14113.28176,E,1.166,119.95,180119,,,A*70
$GNRMC,015845.00,A,4308.02886,N,14113.28214,E,1.128,121.01,180119,,,A*74
$GNRMC,015846.00,A,4308.02862,N,14113.28263,E,1.733,122.93,180119,,,A*79
$GNRMC,015847.00,A,4308.02838,N,14113.28316,E,1.635,122.42,180119,,,A*7F
$GNRMC,015901.00,A,4308.02528,N,14113.29004,E,0.038,,180119,,,A*62
$GNRMC,015902.00,A,4308.02528,N,14113.29005,E,0.040,,180119,,,A*6F
$GNRMC,015903.00,A,4308.02529,N,14113.29006,E,0.075,,180119,,,A*6A
$GNRMC,015904.00,A,4308.02524,N,14113.29016,E,0.479,119.91,180119,,,A*76
$GNRMC,015905.00,A,4308.02516,N,14113.29042,E,0.983,119.67,180119,,,A*76
$GNRMC,015906.00,A,4308.02501,N,14113.29077,E,1.164,122.94,180119,,,A*71
$GNRMC,015907.00,A,4308.02484,N,14113.29118,E,1.340,120.53,180119,,,A*79
$GNRMC,015908.00,A,4308.02467,N,14113.29164,E,1.425,119.13,180119,,,A*7A
$GNRMC,015909.00,A,4308.02448,N,14113.29206,E,1.261,119.91,180119,,,A*7D
$GNRMC,015924.00,A,4308.02216,N,14113.29793,E,1.219,119.33,180119,,,A*71
$GNRMC,015925.00,A,4308.02201,N,14113.29833,E,1.125,118.59,180119,,,A*72
$GNRMC,015926.00,A,4308.02185,N,14113.29876,E,1.288,117.34,180119,,,A*7F
$GNRMC,015927.00,A,4308.02168,N,14113.29922,E,1.354,116.11,180119,,,A*7B
$GNRMC,015928.00,A,4308.02148,N,14113.29968,E,1.410,120.81,180119,,,A*73
$GNRMC,015929.00,A,4308.02128,N,14113.30016,E,1.454,118.47,180119,,,A*7D
$GNRMC,015930.00,A,4308.02110,N,14113.30066,E,1.498,116.88,180119,,,A*74
$GNRMC,015931.00,A,4308.02090,N,14113.30112,E,1.380,120.15,180119,,,A*71
$GNRMC,015932.00,A,4308.02070,N,14113.30159,E,1.494,118.39,180119,,,A*74
$GNRMC,015947.00,A,4308.01925,N,14113.30532,E,0.731,114.91,180119,,,A*76
$GNRMC,015948.00,A,4308.01914,N,14113.30555,E,0.776,119.05,180119,,,A*79
$GNRMC,015949.00,A,4308.01907,N,14113.30578,E,0.786,119.18,180119,,,A*76
$GNRMC,015950.00,A,4308.01897,N,14113.30604,E,0.899,120.31,180119,,,A*7E
$GNRMC,015951.00,A,4308.01884,N,14113.30634,E,0.894,121.08,180119,,,A*78
$GNRMC,015952.00,A,4308.01868,N,14113.30664,E,1.009,122.85,180119,,,A*77
$GNRMC,015953.00,A,4308.01850,N,14113.30698,E,1.117,123.40,180119,,,A*78
$GNRMC,015954.00,A,4308.01831,N,14113.30734,E,1.130,123.15,180119,,,A*7A
$GNRMC,015955.00,A,4308.01814,N,14113.30769,E,1.014,122.03,180119,,,A*75
$GNRMC,020009.00,A,4308.01600,N,14113.31266,E,1.264,118.24,180119,,,A*7A
$GNRMC,020010.00,A,4308.01581,N,14113.31309,E,1.345,119.09,180119,,,A*7C
$GNRMC,020011.00,A,4308.01562,N,14113.31352,E,1.294,118.71,180119,,,A*7D
$GNRMC,020012.00,A,4308.01541,N,14113.31395,E,1.351,121.13,180119,,,A*72
$GNRMC,020013.00,A,4308.01521,N,14113.31440,E,1.344,120.36,180119,,,A*78
$GNRMC,020014.00,A,4308.01503,N,14113.31488,E,1.440,117.79,180119,,,A*77
$GNRMC,020015.00,A,4308.01484,N,14113.31535,E,1.449,118.65,180119,,,A*74
$GNRMC,020016.00,A,4308.01466,N,14113.31583,E,1.402,117.48,180119,,,A*79
$GNRMC,020017.00,A,4308.01448,N,14113.31631,E,1.479,118.09,180119,,,A*78
$GNRMC,020031.00,A,4308.01183,N,14113.32268,E,1.224,117.94,180119,,,A*70
$GNRMC,020032.00,A,4308.01166,N,14113.32307,E,1.151,120.22,180119,,,A*78
$GNRMC,020033.00,A,4308.01148,N,14113.32346,E,1.157,118.81,180119,,,A*74
$GNRMC,020034.00,A,4308.01134,N,14113.32383,E,1.056,117.95,180119,,,A*7B
$GNRMC,020035.00,A,4308.01119,N,14113.32420,E,1.107,118.38,180119,,,A*76
$GNRMC,020036.00,A,4308.01101,N,14113.32456,E,1.079,121.49,180119,,,A*79
$GNRMC,020037.00,A,4308.01089,N,14113.32489,E,1.057,120.49,180119,,,A*76
$GNRMC,020038.00,A,4308.01077,N,14113.32521,E,0.906,118.53,180119,,,A*77
$GNRMC,020039.00,A,4308.01067,N,14113.32549,E,0.789,116.64,180119,,,A*7A
$GNRMC,020053.00,A,4308.00998,N,14113.32723,E,0.025,,180119,,,A*6B
$GNRMC,020054.00,A,4308.01000,N,14113.32722,E,0.047,,180119,,,A*60
$GNRMC,020055.00,A,4308.01001,N,14113.32722,E,0.022,,180119,,,A*63
$GNRMC,020056.00,A,4308.01003,N,14113.32721,E,0.038,,180119,,,A*6A
$GNRMC,020057.00,A,4308.01002,N,14113.32720,E,0.003,,180119,,,A*63
$GNRMC,020058.00,A,4308.01000,N,14113.32719,E,0.005,,180119,,,A*62
$GNRMC,020059.00,A,4308.00997,N,14113.32718,E,0.015,,180119,,,A*65
$GNRMC,020100.00,A,4308.00995,N,14113.32716,E,0.034,,180119,,,A*67
$GNRMC,020101.00,A,4308.00992,N,14113.32715,E,0.028,,180119,,,A*6F
$GNRMC,020116.00,A,4308.01015,N,14113.32706,E,0.024,,180119,,,A*60
$GNRMC,020117.00,A,4308.01017,N,14113.32706,E,0.027,,180119,,,A*60
$GNRMC,020118.00,A,4308.01020,N,14113.32706,E,0.022,,180119,,,A*6E
$GNRMC,020119.00,A,4308.01022,N,14113.32707,E,0.020,,180119,,,A*6E
$GNRMC,020120.00,A,4308.01025,N,14113.32707,E,0.020,,180119,,,A*63
$GNRMC,020121.00,A,4308.01028,N,14113.32706,E,0.008,,180119,,,A*64
$GNRMC,020122.00,A,4308.01028,N,14113.32705,E,0.008,,180119,,,A*64
$GNRMC,020123.00,A,4308.01028,N,14113.32704,E,0.023,,180119,,,A*6D
$GNRMC,020124.00,A,4308.01026,N,14113.32703,E,0.017,,180119,,,A*64
$GNRMC,020139.00,A,4308.00929,N,14113.32836,E,1.028,118.42,180119,,,A*7B
$GNRMC,020140.00,A,4308.00914,N,14113.32870,E,1.026,118.73,180119,,,A*75
$GNRMC,020141.00,A,4308.00898,N,14113.32907,E,1.153,117.97,180119,,,A*76
$GNRMC,020142.00,A,4308.00887,N,14113.32942,E,1.010,117.00,180119,,,A*72
$GNRMC,020143.00,A,4308.00873,N,14113.32976,E,1.035,119.01,180119,,,A*77
$GNRMC,020144.00,A,4308.00859,N,14113.33011,E,1.084,118.89,180119,,,A*7A
$GNRMC,020145.00,A,4308.00848,N,14113.33044,E,1.058,119.20,180119,,,A*78
$GNRMC,020146.00,A,4308.00834,N,14113.33079,E,1.006,118.81,180119,,,A*7F
$GNRMC,020147.00,A,4308.00824,N,14113.33104,E,0.696,119.13,180119,,,A*70
$GNRMC,020201.00,A,4308.00675,N,14113.33711,E,1.479,84.11,180119,,,A*4C
$GNRMC,020202.00,A,4308.00687,N,14113.33762,E,1.429,75.39,180119,,,A*47
$GNRMC,020203.00,A,4308.00704,N,14113.33807,E,1.365,69.90,180119,,,A*41
$GNRMC,020204.00,A,4308.00719,N,14113.33846,E,1.151,65.05,180119,,,A*4A
$GNRMC,020205.00,A,4308.00723,N,14113.33860,E,0.111,,180119,,,A*6B
$GNRMC,020206.00,A,4308.00724,N,14113.33860,E,0.033,,180119,,,A*6E
$GNRMC,020207.00,A,4308.00718,N,14113.33840,E,0.780,114.26,180119,,,A*73
$GNRMC,020208.00,A,4308.00706,N,14113.33806,E,1.041,189.82,180119,,,A*70
$GNRMC,020209.00,A,4308.00693,N,14113.33767,E,1.126,216.94,180119,,,A*76
$GNRMC,020224.00,A,4308.00511,N,14113.33557,E,1.355,326.99,180119,,,A*78
$GNRMC,020225.00,A,4308.00543,N,14113.33545,E,1.301,334.05,180119,,,A*7A
$GNRMC,020226.00,A,4308.00577,N,14113.33522,E,1.494,331.82,180119,,,A*7E
$GNRMC,020227.00,A,4308.00603,N,14113.33502,E,1.119,332.13,180119,,,A*76
$GNRMC,020228.00,A,4308.00619,N,14113.33481,E,0.730,325.00,180119,,,A*70
$GNRMC,020229.00,A,4308.00619,N,14113.33480,E,0.185,,180119,,,A*62
$GNRMC,020230.00,A,4308.00617,N,14113.33484,E,0.019,,180119,,,A*64
$GNRMC,020231.00,A,4308.00616,N,14113.33484,E,0.020,,180119,,,A*6E
$GNRMC,020232.00,A,4308.00616,N,14113.33486,E,0.089,,180119,,,A*6C
$GNRMC,020247.00,A,4308.00569,N,14113.33542,E,0.010,,180119,,,A*6C
$GNRMC,020248.00,A,4308.00568,N,14113.33541,E,0.021,,180119,,,A*63
$GNRMC,020249.00,A,4308.00568,N,14113.33540,E,0.032,,180119,,,A*61
$GNRMC,020250.00,A,4308.00568,N,14113.33539,E,0.013,,180119,,,A*64
$GNRMC,020251.00,A,4308.00568,N,14113.33537,E,0.014,,180119,,,A*6C
$GNRMC,020252.00,A,4308.00569,N,14113.33535,E,0.012,,180119,,,A*6A
$GNRMC,020253.00,A,4308.00568,N,14113.33534,E,0.004,,180119,,,A*6C
$GNRMC,020254.00,A,4308.00565,N,14113.33534,E,0.011,,180119,,,A*62
$GNRMC,020255.00,A,4308.00564,N,14113.33534,E,0.001,,180119,,,A*63
$GNRMC,020309.00,A,4308.00571,N,14113.33557,E,0.014,,180119,,,A*6E
$GNRMC,020310.00,A,4308.00572,N,14113.33559,E,0.012,,180119,,,A*6D
$GNRMC,020311.00,A,4308.00573,N,14113.33560,E,0.012,,180119,,,A*67
$GNRMC,020312.00,A,4308.00574,N,14113.33561,E,0.024,,180119,,,A*67
$GNRMC,020313.00,A,4308.00576,N,14113.33561,E,0.013,,180119,,,A*60
$GNRMC,020314.00,A,4308.00577,N,14113.33562,E,0.008,,180119,,,A*6F
$GNRMC,020315.00,A,4308.00578,N,14113.33563,E,0.017,,180119,,,A*6E
$GNRMC,020316.00,A,4308.00579,N,14113.33563,E,0.009,,180119,,,A*63
$GNRMC,020317.00,A,4308.00579,N,14113.33564,E,0.009,,180119,,,A*65
$GNRMC,020331.00,A,4308.00557,N,14113.33574,E,0.004,,180119,,,A*61
$GNRMC,020332.00,A,4308.00554,N,14113.33576,E,0.005,,180119,,,A*62
$GNRMC,020333.00,A,4308.00554,N,14113.33577,E,0.025,,180119,,,A*60
$GNRMC,020334.00,A,4308.00552,N,14113.33578,E,0.009,,180119,,,A*60
$GNRMC,020335.00,A,4308.00551,N,14113.33579,E,0.011,,180119,,,A*6A
$GNRMC,020336.00,A,4308.00550,N,14113.33581,E,0.026,,180119,,,A*6B
$GNRMC,020337.00,A,4308.00548,N,14113.33583,E,0.021,,180119,,,A*66
$GNRMC,020338.00,A,4308.00543,N,14113.33587,E,0.002,,180119,,,A*67
$GNRMC,020339.00,A,4308.00538,N,14113.33591,E,0.031,,180119,,,A*6D
$GNRMC,020353.00,A,4308.00479,N,14113.33628,E,0.006,,180119,,,A*60
$GNRMC,020354.00,A,4308.00476,N,14113.33630,E,0.022,,180119,,,A*67
$GNRMC,020355.00,A,4308.00474,N,14113.33631,E,0.022,,180119,,,A*65
$GNRMC,020356.00,A,4308.00470,N,14113.33634,E,0.024,,180119,,,A*61
$GNRMC,020357.00,A,4308.00466,N,14113.33637,E,0.009,,180119,,,A*6B
$GNRMC,020358.00,A,4308.00462,N,14113.33640,E,0.023,,180119,,,A*68
$GNRMC,020359.00,A,4308.00459,N,14113.33643,E,0.017,,180119,,,A*65
$GNRMC,020400.00,A,4308.00456,N,14113.33645,E,0.014,,180119,,,A*64
$GNRMC,020401.00,A,4308.00453,N,14113.33648,E,0.022,,180119,,,A*68
$GNRMC,020416.00,A,4308.00441,N,14113.33685,E,0.017,,180119,,,A*6A
$GNRMC,020417.00,A,4308.00441,N,14113.33686,E,0.018,,180119,,,A*67
$GNRMC,020418.00,A,4308.00440,N,14113.33688,E,0.012,,180119,,,A*6D
$GNRMC,020419.00,A,4308.00438,N,14113.33690,E,0.006,,180119,,,A*6F
$GNRMC,020420.00,A,4308.00437,N,14113.33693,E,0.012,,180119,,,A*6C
$GNRMC,020421.00,A,4308.00436,N,14113.33693,E,0.003,,180119,,,A*6C
$GNRMC,020422.00,A,4308.00435,N,14113.33694,E,0.024,,180119,,,A*6E
$GNRMC,020423.00,A,4308.00435,N,14113.33694,E,0.009,,180119,,,A*60
$GNRMC,020424.00,A,4308.00434,N,14113.33694,E,0.012,,180119,,,A*6C
$GNRMC,020438.00,A,4308.00439,N,14113.33682,E,0.024,,180119,,,A*6E
$GNRMC,020440.00,A,4308.00443,N,14113.33679,E,0.039,,180119,,,A*64
$GNRMC,020441.00,A,4308.00445,N,14113.33676,E,0.019,,180119,,,A*6E
$GNRMC,020442.00,A,4308.00448,N,14113.33675,E,0.010,,180119,,,A*6A
$GNRMC,020443.00,A,4308.00449,N,14113.33673,E,0.011,,180119,,,A*6D
$GNRMC,020444.00,A,4308.00452,N,14113.33670,E,0.022,,180119,,,A*63
$GNRMC,020445.00,A,4308.00454,N,14113.33667,E,0.013,,180119,,,A*60
$GNRMC,020446.00,A,4308.00454,N,14113.33665,E,0.017,,180119,,,A*65
$GNRMC,020500.00,A,4308.00459,N,14113.33664,E,0.012,,180119,,,A*6F
$GNRMC,020501.00,A,4308.00459,N,14113.33665,E,0.021,,180119,,,A*6F
$GNRMC,020502.00,A,4308.00459,N,14113.33664,E,0.033,,180119,,,A*6E
$GNRMC,020503.00,A,4308.00459,N,14113.33664,E,0.021,,180119,,,A*6C
$GNRMC,020504.00,A,4308.00457,N,14113.33664,E,0.009,,180119,,,A*6F
$GNRMC,020505.00,A,4308.00455,N,14113.33663,E,0.020,,180119,,,A*60
$GNRMC,020506.00,A,4308.00456,N,14113.33661,E,0.024,,180119,,,A*66
$GNRMC,020507.00,A,4308.00456,N,14113.33658,E,0.015,,180119,,,A*6F
$GNRMC,020508.00,A,4308.00456,N,14113.33655,E,0.022,,180119,,,A*69
$GNRMC,020523.00,A,4308.00481,N,14113.33603,E,0.807,313.41,180119,,,A*7C
$GNRMC,020524.00,A,4308.00495,N,14113.33567,E,0.949,301.86,180119,,,A*7C
$GNRMC,020525.00,A,4308.00507,N,14113.33529,E,0.924,294.32,180119,,,A*74
$GNRMC,020526.00,A,4308.00518,N,14113.33476,E,1.527,281.43,180119,,,A*7E
$GNRMC,020527.00,A,4308.00531,N,14113.33417,E,1.493,282.29,180119,,,A*72
$GNRMC,020528.00,A,4308.00544,N,14113.33377,E,0.792,284.02,180119,,,A*72
$GNRMC,020529.00,A,4308.00559,N,14113.33342,E,0.924,289.72,180119,,,A*70
$GNRMC,020530.00,A,4308.00572,N,14113.33320,E,0.384,292.01,180119,,,A*7B
$GNRMC,020531.00,A,4308.00576,N,14113.33317,E,0.092,,180119,,,A*68
$GNRMC,020546.00,A,4308.00451,N,14113.33610,E,0.005,,180119,,,A*60
$GNRMC,020547.00,A,4308.00454,N,14113.33609,E,0.025,,180119,,,A*6E
$GNRMC,020548.00,A,4308.00456,N,14113.33609,E,0.026,,180119,,,A*60
$GNRMC,020549.00,A,4308.00458,N,14113.33608,E,0.013,,180119,,,A*68
$GNRMC,020550.00,A,4308.00460,N,14113.33607,E,0.008,,180119,,,A*6E
$GNRMC,020551.00,A,4308.00461,N,14113.33608,E,0.009,,180119,,,A*60
$GNRMC,020552.00,A,4308.00459,N,14113.33609,E,0.023,,180119,,,A*61
$GNRMC,020553.00,A,4308.00458,N,14113.33609,E,0.016,,180119,,,A*67
$GNRMC,020554.00,A,4308.00459,N,14113.33609,E,0.185,,180119,,,A*6A
$GNRMC,020609.00,A,4308.00630,N,14113.33173,E,1.357,297.46,180119,,,A*7A
$GNRMC,020610.00,A,4308.00650,N,14113.33131,E,1.263,299.91,180119,,,A*70
$GNRMC,020611.00,A,4308.00671,N,14113.33089,E,1.313,300.89,180119,,,A*7E
$GNRMC,020612.00,A,4308.00691,N,14113.33045,E,1.330,300.02,180119,,,A*71
$GNRMC,020613.00,A,4308.00709,N,14113.33002,E,1.278,299.29,180119,,,A*76
$GNRMC,020614.00,A,4308.00728,N,14113.32960,E,1.278,299.75,180119,,,A*77
$GNRMC,020615.00,A,4308.00747,N,14113.32919,E,1.237,300.56,180119,,,A*7A
$GNRMC,020616.00,A,4308.00768,N,14113.32877,E,1.323,301.78,180119,,,A*74
$GNRMC,020617.00,A,4308.00790,N,14113.32834,E,1.337,303.13,180119,,,A*7F
$GNRMC,020631.00,A,4308.01029,N,14113.32296,E,1.317,300.17,180119,,,A*78
$GNRMC,020632.00,A,4308.01046,N,14113.32250,E,1.334,296.66,180119,,,A*71
$GNRMC,020633.00,A,4308.01065,N,14113.32205,E,1.296,297.87,180119,,,A*76
$GNRMC,020634.00,A,4308.01084,N,14113.32160,E,1.375,299.05,180119,,,A*76
$GNRMC,020635.00,A,4308.01102,N,14113.32119,E,1.125,300.00,180119,,,A*75
$GNRMC,020636.00,A,4308.01119,N,14113.32081,E,1.099,298.15,180119,,,A*7E
$GNRMC,020637.00,A,4308.01132,N,14113.32041,E,1.182,297.37,180119,,,A*7E
$GNRMC,020638.00,A,4308.01150,N,14113.31999,E,1.257,296.98,180119,,,A*75
$GNRMC,020639.00,A,4308.01166,N,14113.31960,E,1.104,297.66,180119,,,A*72
$GNRMC,020653.00,A,4308.01284,N,14113.31710,E,0.758,296.19,180119,,,A*7F
$GNRMC,020654.00,A,4308.01294,N,14113.31683,E,0.842,297.48,180119,,,A*73
$GNRMC,020655.00,A,4308.01306,N,14113.31657,E,0.769,299.46,180119,,,A*77
$GNRMC,020656.00,A,4308.01321,N,14113.31629,E,0.796,299.90,180119,,,A*73
$GNRMC,020657.00,A,4308.01334,N,14113.31598,E,0.992,299.78,180119,,,A*73
$GNRMC,020658.00,A,4308.01346,N,14113.31564,E,1.032,298.19,180119,,,A*7E
$GNRMC,020659.00,A,4308.01362,N,14113.31526,E,1.172,300.44,180119,,,A*72
$GNRMC,020700.00,A,4308.01380,N,14113.31488,E,1.148,301.55,180119,,,A*7E
$GNRMC,020701.00,A,4308.01400,N,14113.31445,E,1.399,302.63,180119,,,A*79
$GNRMC,020715.00,A,4308.01660,N,14113.30831,E,1.381,299.33,180119,,,A*79
$GNRMC,020716.00,A,4308.01680,N,14113.30783,E,1.493,299.52,180119,,,A*71
$GNRMC,020717.00,A,4308.01701,N,14113.30735,E,1.447,299.66,180119,,,A*7B
$GNRMC,020718.00,A,4308.01719,N,14113.30688,E,1.403,299.44,180119,,,A*7A
$GNRMC,020719.00,A,4308.01737,N,14113.30643,E,1.330,299.13,180119,,,A*75
$GNRMC,020720.00,A,4308.01757,N,14113.30598,E,1.342,299.60,180119,,,A*7D
$GNRMC,020721.00,A,4308.01777,N,14113.30554,E,1.434,302.06,180119,,,A*7B
$GNRMC,020722.00,A,4308.01794,N,14113.30509,E,1.321,299.48,180119,,,A*77
$GNRMC,020723.00,A,4308.01814,N,14113.30464,E,1.314,298.10,180119,,,A*71
$GNRMC,020738.00,A,4308.02081,N,14113.29862,E,0.975,298.90,180119,,,A*7A
$GNRMC,020739.00,A,4308.02093,N,14113.29831,E,0.903,298.68,180119,,,A*78
$GNRMC,020740.00,A,4308.02107,N,14113.29802,E,0.875,301.26,180119,,,A*71
$GNRMC,020741.00,A,4308.02121,N,14113.29772,E,0.948,300.36,180119,,,A*73
$GNRMC,020742.00,A,4308.02135,N,14113.29743,E,0.858,299.97,180119,,,A*7D
$GNRMC,020743.00,A,4308.02141,N,14113.29734,E,0.067,,180119,,,A*69
$GNRMC,020744.00,A,4308.02142,N,14113.29734,E,0.008,,180119,,,A*64
$GNRMC,020745.00,A,4308.02143,N,14113.29735,E,0.011,,180119,,,A*6D
$GNRMC,020746.00,A,4308.02143,N,14113.29736,E,0.001,,180119,,,A*6C
$GNRMC,020801.00,A,4308.02351,N,14113.29205,E,1.416,297.13,180119,,,A*77
$GNRMC,020802.00,A,4308.02368,N,14113.29153,E,1.455,295.22,180119,,,A*79
$GNRMC,020803.00,A,4308.02384,N,14113.29103,E,1.446,295.76,180119,,,A*7C
$GNRMC,020804.00,A,4308.02400,N,14113.29053,E,1.415,295.58,180119,,,A*7E
$GNRMC,020805.00,A,4308.02417,N,14113.29002,E,1.481,296.24,180119,,,A*78
$GNRMC,020806.00,A,4308.02435,N,14113.28952,E,1.448,297.02,180119,,,A*76
$GNRMC,020807.00,A,4308.02454,N,14113.28898,E,1.598,296.75,180119,,,A*7A
$GNRMC,020808.00,A,4308.02473,N,14113.28842,E,1.623,296.90,180119,,,A*7F
$GNRMC,020809.00,A,4308.02494,N,14113.28787,E,1.611,298.21,180119,,,A*74
$GNRMC,020824.00,A,4308.02604,N,14113.28025,E,1.857,239.59,180119,,,A*77
$GNRMC,020825.00,A,4308.02568,N,14113.27974,E,1.838,229.60,180119,,,A*7F
$GNRMC,020826.00,A,4308.02529,N,14113.27935,E,1.600,221.34,180119,,,A*70
$GNRMC,020827.00,A,4308.02507,N,14113.27912,E,0.712,219.52,180119,,,A*70
$GNRMC,020828.00,A,4308.02509,N,14113.27906,E,0.191,,180119,,,A*6A
$GNRMC,020829.00,A,4308.02525,N,14113.27912,E,0.583,291.00,180119,,,A*73
$GNRMC,020830.00,A,4308.02550,N,14113.27937,E,1.286,19.25,180119,,,A*48
$GNRMC,020831.00,A,4308.02580,N,14113.27966,E,1.269,30.18,180119,,,A*44
$GNRMC,020832.00,A,4308.02616,N,14113.27995,E,1.597,28.95,180119,,,A*4D
$GNRMC,020847.00,A,4308.02948,N,14113.27839,E,1.667,97.91,180119,,,A*40
$GNRMC,020848.00,A,4308.02933,N,14113.27902,E,1.695,100.72,180119,,,A*75
$GNRMC,020849.00,A,4308.02918,N,14113.27947,E,1.012,103.63,180119,,,A*76
$GNRMC,020850.00,A,4308.02901,N,14113.27986,E,1.172,115.12,180119,,,A*7D
$GNRMC,020851.00,A,4308.02893,N,14113.28004,E,0.383,116.79,180119,,,A*79
$GNRMC,020852.00,A,4308.02889,N,14113.28008,E,0.032,,180119,,,A*62
$GNRMC,020853.00,A,4308.02889,N,14113.28008,E,0.004,,180119,,,A*66
$GNRMC,020854.00,A,4308.02887,N,14113.28008,E,0.010,,180119,,,A*6A
$GNRMC,020855.00,A,4308.02886,N,14113.28008,E,0.007,,180119,,,A*6C
$GNRMC,020909.00,A,4308.02865,N,14113.28006,E,0.003,,180119,,,A*63
$GNRMC,020910.00,A,4308.02864,N,14113.28006,E,0.013,,180119,,,A*6B
$GNRMC,020911.00,A,4308.02864,N,14113.28005,E,0.016,,180119,,,A*6C
$GNRMC,020912.00,A,4308.02863,N,14113.28007,E,0.012,,180119,,,A*6E
$GNRMC,020913.00,A,4308.02863,N,14113.28007,E,0.026,,180119,,,A*68
$GNRMC,020914.00,A,4308.02861,N,14113.28008,E,0.021,,180119,,,A*65
$GNRMC,020915.00,A,4308.02860,N,14113.28008,E,0.005,,180119,,,A*63
$GNRMC,020916.00,A,4308.02860,N,14113.28009,E,0.013,,180119,,,A*66
$GNRMC,020917.00,A,4308.02858,N,14113.28010,E,0.012,,180119,,,A*65
$GNRMC,020931.00,A,4308.02845,N,14113.28032,E,0.118,,180119,,,A*66
$GNRMC,020932.00,A,4308.02844,N,14113.28032,E,0.079,,180119,,,A*62
$GNRMC,020933.00,A,4308.02846,N,14113.28040,E,0.351,,180119,,,A*6D
$GNRMC,020934.00,A,4308.02838,N,14113.28032,E,0.335,,180119,,,A*64
$GNRMC,020935.00,A,4308.02834,N,14113.28021,E,0.250,,180119,,,A*69
$GNRMC,020936.00,A,4308.02836,N,14113.28018,E,0.019,,180119,,,A*6D
$GNRMC,020937.00,A,4308.02837,N,14113.28018,E,0.027,,180119,,,A*60
$GNRMC,020938.00,A,4308.02840,N,14113.28021,E,0.017,,180119,,,A*66
$GNRMC,020939.00,A,4308.02843,N,14113.28024,E,0.106,,180119,,,A*60
$GNRMC,020953.00,A,4308.02947,N,14113.28250,E,1.371,72.01,180119,,,A*41
$GNRMC,020954.00,A,4308.02959,N,14113.28278,E,0.369,,180119,,,A*61
$GNRMC,020955.00,A,4308.02973,N,14113.28265,E,0.795,38.45,180119,,,A*47
$GNRMC,020956.00,A,4308.03001,N,14113.28246,E,1.121,350.10,180119,,,A*7D
$GNRMC,020957.00,A,4308.03032,N,14113.28236,E,0.962,353.50,180119,,,A*72
$GNRMC,020958.00,A,4308.03047,N,14113.28243,E,1.100,5.53,180119,,,A*73
$GNRMC,020959.00,A,4308.03073,N,14113.28224,E,1.058,333.41,180119,,,A*7D
$GNRMC,021000.00,A,4308.03111,N,14113.28228,E,1.323,7.21,180119,,,A*7D
$GNRMC,021001.00,A,4308.03139,N,14113.28250,E,0.853,12.35,180119,,,A*45
$GNRMC,021016.00,A,4308.03528,N,14113.28383,E,1.271,12.19,180119,,,A*4D
$GNRMC,021017.00,A,4308.03562,N,14113.28400,E,1.096,15.51,180119,,,A*4E
$GNRMC,021018.00,A,4308.03591,N,14113.28420,E,0.932,21.81,180119,,,A*43
$GNRMC,021019.00,A,4308.03625,N,14113.28436,E,1.102,17.79,180119,,,A*41
$GNRMC,021020.00,A,4308.03670,N,14113.28447,E,1.470,12.74,180119,,,A*45
$GNRMC,021021.00,A,4308.03707,N,14113.28464,E,1.031,15.07,180119,,,A*46
$GNRMC,021022.00,A,4308.03736,N,14113.28485,E,1.019,24.37,180119,,,A*43
$GNRMC,021023.00,A,4308.03774,N,14113.28502,E,1.218,20.46,180119,,,A*4B
$GNRMC,021024.00,A,4308.03809,N,14113.28517,E,1.088,20.21,180119,,,A*47
$GNRMC,021038.00,A,4308.04390,N,14113.28952,E,1.486,43.47,180119,,,A*44
$GNRMC,021039.00,A,4308.04418,N,14113.29011,E,1.837,55.59,180119,,,A*43
$GNRMC,021040.00,A,4308.04440,N,14113.29069,E,1.497,61.17,180119,,,A*44
$GNRMC,021041.00,A,4308.04469,N,14113.29136,E,1.937,69.57,180119,,,A*4E
$GNRMC,021042.00,A,4308.04484,N,14113.29214,E,2.045,78.18,180119,,,A*49
$GNRMC,021043.00,A,4308.04501,N,14113.29290,E,1.855,78.41,180119,,,A*4E
$GNRMC,021044.00,A,4308.04515,N,14113.29360,E,1.758,78.83,180119,,,A*4E
$GNRMC,021045.00,A,4308.04524,N,14113.29435,E,2.073,82.35,180119,,,A*4F
$GNRMC,021046.00,A,4308.04532,N,14113.29513,E,1.949,81.04,180119,,,A*4C
$GNRMC,021100.00,A,4308.04240,N,14113.30564,E,2.435,111.29,180119,,,A*77
$GNRMC,021101.00,A,4308.04215,N,14113.30638,E,2.150,111.31,180119,,,A*73
$GNRMC,021102.00,A,4308.04199,N,14113.30730,E,2.699,102.19,180119,,,A*74
$GNRMC,021103.00,A,4308.04171,N,14113.30802,E,2.211,109.04,180119,,,A*7E
                                                                                                                                                                                                                                                                                                                                                                                                                                                                                                                                                                                                                                                                                                                                                                                                                                                                                   