$GNRMC,005750.00,A,4308.04666,N,14113.46807,E,0.196,,180119,,,A*61
$GNRMC,005751.00,A,4308.04909,N,14113.47294,E,0.180,,180119,,,A*60
$GNRMC,005752.00,A,4308.05127,N,14113.47767,E,0.220,,180119,,,A*66
$GNRMC,005753.00,A,4308.05294,N,14113.48121,E,0.219,,180119,,,A*6D
$GNRMC,005754.00,A,4308.05476,N,14113.48524,E,0.447,,180119,,,A*6C
$GNRMC,005755.00,A,4308.05672,N,14113.48932,E,0.278,,180119,,,A*6A
$GNRMC,005756.00,A,4308.05807,N,14113.49208,E,0.374,,180119,,,A*6B
$GNRMC,005757.00,A,4308.05909,N,14113.49415,E,0.177,,180119,,,A*6E
$GNRMC,005758.00,A,4308.06057,N,14113.49740,E,0.177,,180119,,,A*63
$GNRMC,005759.00,A,4308.06157,N,14113.49954,E,0.146,,180119,,,A*6A
$GNRMC,005800.00,A,4308.06290,N,14113.50241,E,0.174,,180119,,,A*67
$GNRMC,005801.00,A,4308.04101,N,14113.45356,E,0.021,,180119,,,A*6D
$GNRMC,005818.00,A,4308.01953,N,14113.40724,E,0.202,,180119,,,A*68
$GNRMC,005819.00,A,4308.01750,N,14113.40284,E,0.071,,180119,,,A*6D
$GNRMC,005820.00,A,4308.01617,N,14113.40006,E,0.115,,180119,,,A*6E
$GNRMC,005821.00,A,4308.01519,N,14113.39806,E,0.045,,180119,,,A*60
$GNRMC,005822.00,A,4308.01432,N,14113.39635,E,0.084,,180119,,,A*68
$GNRMC,005823.00,A,4308.01366,N,14113.39507,E,0.034,,180119,,,A*66
$GNRMC,005824.00,A,4308.01318,N,14113.39423,E,0.086,,180119,,,A*66
$GNRMC,005825.00,A,4308.01286,N,14113.39374,E,0.124,,180119,,,A*6D
$GNRMC,005826.00,A,4308.01253,N,14113.39319,E,0.090,,180119,,,A*63
$GNRMC,005827.00,A,4308.01226,N,14113.39277,E,0.067,,180119,,,A*61
$GNRMC,005828.00,A,4308.01199,N,14113.39238,E,0.058,,180119,,,A*6E
$GNRMC,005829.00,A,4308.01177,N,14113.39207,E,0.162,,180119,,,A*6B
$GNRMC,005844.00,A,4308.01178,N,14113.39331,E,0.057,,180119,,,A*6C
$GNRMC,005845.00,A,4308.01180,N,14113.39345,E,0.045,,180119,,,A*6A
$GNRMC,005846.00,A,4308.01180,N,14113.39354,E,0.041,,180119,,,A*6D
$GNRMC,005847.00,A,4308.01184,N,14113.39370,E,0.170,,180119,,,A*6D
$GNRMC,005848.00,A,4308.01183,N,14113.39373,E,0.074,,180119,,,A*63
$GNRMC,005849.00,A,4308.01116,N,14113.39156,E,0.177,,180119,,,A*69
$GNRMC,005850.00,A,4308.01055,N,14113.38973,E,0.136,,180119,,,A*6C
$GNRMC,005851.00,A,4308.01017,N,14113.38851,E,0.072,,180119,,,A*6B
$GNRMC,005852.00,A,4308.00988,N,14113.38754,E,0.118,,180119,,,A*61
$GNRMC,005853.00,A,4308.00959,N,14113.38672,E,0.120,,180119,,,A*62
$GNRMC,005854.00,A,4308.00932,N,14113.38595,E,0.027,,180119,,,A*64
$GNRMC,005909.00,A,4308.00710,N,14113.38105,E,0.216,,180119,,,A*6E
$GNRMC,005910.00,A,4308.00710,N,14113.38094,E,0.098,,180119,,,A*6B
$GNRMC,005911.00,A,4308.00709,N,14113.38084,E,0.029,,180119,,,A*69
$GNRMC,005912.00,A,4308.00704,N,14113.38070,E,0.034,,180119,,,A*60
$GNRMC,005913.00,A,4308.00701,N,14113.38061,E,0.034,,180119,,,A*64
$GNRMC,005914.00,A,4308.00699,N,14113.38053,E,0.045,,180119,,,A*64
$GNRMC,005915.00,A,4308.00695,N,14113.38047,E,0.082,,180119,,,A*67
$GNRMC,005916.00,A,4308.00688,N,14113.38041,E,0.108,,180119,,,A*6D
$GNRMC,005917.00,A,4308.00678,N,14113.38031,E,0.104,,180119,,,A*68
$GNRMC,005918.00,A,4308.00672,N,14113.38023,E,0.028,,180119,,,A*61
$GNRMC,005933.00,A,4308.00562,N,14113.37843,E,0.034,,180119,,,A*66
$GNRMC,005934.00,A,4308.00561,N,14113.37848,E,0.036,,180119,,,A*6B
$GNRMC,005935.00,A,4308.00558,N,14113.37852,E,0.046,,180119,,,A*6C
$GNRMC,005936.00,A,4308.00556,N,14113.37856,E,0.046,,180119,,,A*65
$GNRMC,005937.00,A,4308.00547,N,14113.37859,E,0.147,,180119,,,A*6B
$GNRMC,005938.00,A,4308.00541,N,14113.37863,E,0.111,,180119,,,A*68
$GNRMC,005939.00,A,4308.00534,N,14113.37869,E,0.180,,180119,,,A*69
$GNRMC,005940.00,A,4308.00531,N,14113.37875,E,0.130,,180119,,,A*64
$GNRMC,005941.00,A,4308.00527,N,14113.37885,E,0.049,,180119,,,A*62
$GNRMC,005955.00,A,4308.00541,N,14113.37963,E,0.024,,180119,,,A*65
$GNRMC,005956.00,A,4308.00540,N,14113.37974,E,0.015,,180119,,,A*63
$GNRMC,005957.00,A,4308.00535,N,14113.37983,E,0.096,,180119,,,A*63
$GNRMC,005958.00,A,4308.00530,N,14113.37992,E,0.018,,180119,,,A*6F
$GNRMC,005959.00,A,4308.00525,N,14113.38003,E,0.095,,180119,,,A*61
$GNRMC,010000.00,A,4308.00515,N,14113.38013,E,0.060,,180119,,,A*68
$GNRMC,010001.00,A,4308.00503,N,14113.38007,E,0.044,,180119,,,A*6D
$GNRMC,010002.00,A,4308.00491,N,14113.38016,E,0.055,,180119,,,A*64
$GNRMC,010003.00,A,4308.00481,N,14113.38025,E,0.020,,180119,,,A*66
$GNRMC,010018.00,A,4308.00310,N,14113.38033,E,0.038,,180119,,,A*6D
$GNRMC,010019.00,A,4308.00303,N,14113.38036,E,0.118,,180119,,,A*68
$GNRMC,010020.00,A,4308.00294,N,14113.38038,E,0.078,,180119,,,A*64
$GNRMC,010021.00,A,4308.00287,N,14113.38047,E,0.083,,180119,,,A*6B
$GNRMC,010022.00,A,4308.00282,N,14113.38057,E,0.037,,180119,,,A*63
$GNRMC,010023.00,A,4308.00277,N,14113.38061,E,0.063,,180119,,,A*6C
$GNRMC,010024.00,A,4308.00273,N,14113.38063,E,0.043,,180119,,,A*6F
$GNRMC,010025.00,A,4308.00268,N,14113.38058,E,0.041,,180119,,,A*6E
$GNRMC,010026.00,A,4308.00265,N,14113.38054,E,0.037,,180119,,,A*6D
$GNRMC,010040.00,A,4308.00302,N,14113.38119,E,0.077,,180119,,,A*61
$GNRMC,010041.00,A,4308.00310,N,14113.38133,E,0.020,,180119,,,A*69
$GNRMC,010042.00,A,4308.00317,N,14113.38148,E,0.062,,180119,,,A*67
$GNRMC,010043.00,A,4308.00323,N,14113.38161,E,0.034,,180119,,,A*69
$GNRMC,010044.00,A,4308.00329,N,14113.38171,E,0.043,,180119,,,A*65
$GNRMC,010045.00,A,4308.00334,N,14113.38182,E,0.037,,180119,,,A*67
$GNRMC,010046.00,A,4308.00338,N,14113.38194,E,0.022,,180119,,,A*6B
$GNRMC,010047.00,A,4308.00334,N,14113.38196,E,0.059,,180119,,,A*68
$GNRMC,010048.00,A,4308.00329,N,14113.38198,E,0.028,,180119,,,A*63
$GNRMC,010103.00,A,4308.00217,N,14113.38287,E,0.021,,180119,,,A*65
$GNRMC,010104.00,A,4308.00209,N,14113.38294,E,0.044,,180119,,,A*6C
$GNRMC,010105.00,A,4308.00203,N,14113.38304,E,0.009,,180119,,,A*66
$GNRMC,010106.00,A,4308.00198,N,14113.38311,E,0.016,,180119,,,A*6E
$GNRMC,010107.00,A,4308.00195,N,14113.38322,E,0.051,,180119,,,A*61
$GNRMC,010108.00,A,4308.00192,N,14113.38333,E,0.089,,180119,,,A*6C
$GNRMC,010109.00,A,4308.00186,N,14113.38347,E,0.067,,180119,,,A*6B
$GNRMC,010110.00,A,4308.00180,N,14113.38363,E,0.092,,180119,,,A*69
$GNRMC,010111.00,A,4308.00173,N,14113.38379,E,0.062,,180119,,,A*60
$GNRMC,010125.00,A,4308.00175,N,14113.38633,E,0.019,,180119,,,A*66
$GNRMC,010126.00,A,4308.00180,N,14113.38652,E,0.013,,180119,,,A*62
$GNRMC,010127.00,A,4308.00186,N,14113.38669,E,0.116,,180119,,,A*69
$GNRMC,010128.00,A,4308.00195,N,14113.38686,E,0.056,,180119,,,A*60
$GNRMC,010129.00,A,4308.00206,N,14113.38705,E,0.067,,180119,,,A*60
$GNRMC,010130.00,A,4308.00219,N,14113.38719,E,0.086,,180119,,,A*64
$GNRMC,010131.00,A,4308.00220,N,14113.38726,E,0.011,,180119,,,A*6D
$GNRMC,010132.00,A,4308.00227,N,14113.38733,E,0.048,,180119,,,A*61
$GNRMC,010133.00,A,4308.00236,N,14113.38738,E,0.034,,180119,,,A*60
$GNRMC,010148.00,A,4308.00429,N,14113.38779,E,0.152,,180119,,,A*60
$GNRMC,010149.00,A,4308.00437,N,14113.38779,E,0.032,,180119,,,A*69
$GNRMC,010150.00,A,4308.00443,N,14113.38778,E,0.043,,180119,,,A*65
$GNRMC,010151.00,A,4308.00449,N,14113.38775,E,0.031,,180119,,,A*66
$GNRMC,010152.00,A,4308.00459,N,14113.38776,E,0.019,,180119,,,A*6D
$GNRMC,010153.00,A,4308.00472,N,14113.38775,E,0.019,,180119,,,A*66
$GNRMC,010154.00,A,4308.00485,N,14113.38774,E,0.041,,180119,,,A*65
$GNRMC,010155.00,A,4308.00503,N,14113.38774,E,0.098,,180119,,,A*6F
$GNRMC,010156.00,A,4308.00522,N,14113.38776,E,0.092,,180119,,,A*67
$GNRMC,010210.00,A,4308.00701,N,14113.38821,E,0.012,,180119,,,A*60
$GNRMC,010211.00,A,4308.00713,N,14113.38819,E,0.025,,180119,,,A*6D
$GNRMC,010212.00,A,4308.00726,N,14113.38817,E,0.145,,180119,,,A*61
$GNRMC,010213.00,A,4308.00741,N,14113.38818,E,0.102,,180119,,,A*6D
$GNRMC,010214.00,A,4308.00754,N,14113.38818,E,0.052,,180119,,,A*6A
$GNRMC,010215.00,A,4308.00766,N,14113.38818,E,0.034,,180119,,,A*6A
$GNRMC,010216.00,A,4308.00778,N,14113.38818,E,0.032,,180119,,,A*60
$GNRMC,010217.00,A,4308.00787,N,14113.38818,E,0.148,,180119,,,A*6D
$GNRMC,010218.00,A,4308.00795,N,14113.38817,E,0.149,,180119,,,A*6F
$GNRMC,010233.00,A,4308.00910,N,14113.38848,E,0.134,,180119,,,A*65
$GNRMC,010234.00,A,4308.00897,N,14113.38843,E,0.133,,180119,,,A*60
$GNRMC,010235.00,A,4308.00887,N,14113.38858,E,0.061,,180119,,,A*6C
$GNRMC,010236.00,A,4308.00889,N,14113.38875,E,0.030,,180119,,,A*6A
$GNRMC,010237.00,A,4308.00885,N,14113.38894,E,0.060,,180119,,,A*6D
$GNRMC,010238.00,A,4308.00880,N,14113.38895,E,0.185,,180119,,,A*6C
$GNRMC,010239.00,A,4308.00870,N,14113.38891,E,0.043,,180119,,,A*6D
$GNRMC,010240.00,A,4308.00861,N,14113.38888,E,0.140,,180119,,,A*69
$GNRMC,010241.00,A,4308.00863,N,14113.38892,E,0.270,,180119,,,A*61
$GNRMC,010255.00,A,4308.00783,N,14113.38808,E,0.067,,180119,,,A*62
$GNRMC,010256.00,A,4308.00773,N,14113.38792,E,0.029,,180119,,,A*68
$GNRMC,010257.00,A,4308.00763,N,14113.38773,E,0.109,,180119,,,A*64
$GNRMC,010258.00,A,4308.00752,N,14113.38759,E,0.181,,180119,,,A*61
$GNRMC,010259.00,A,4308.00747,N,14113.38751,E,0.073,,180119,,,A*60
$GNRMC,010300.00,A,4308.00740,N,14113.38742,E,0.269,,180119,,,A*61
$GNRMC,010301.00,A,4308.00732,N,14113.38733,E,0.227,,180119,,,A*69
$GNRMC,010302.00,A,4308.00725,N,14113.38728,E,0.111,,180119,,,A*60
$GNRMC,010303.00,A,4308.00723,N,14113.38726,E,0.097,,180119,,,A*66
$GNRMC,010318.00,A,4308.00868,N,14113.38802,E,0.076,,180119,,,A*6A
$GNRMC,010319.00,A,4308.00896,N,14113.38818,E,0.041,,180119,,,A*65
$GNRMC,010320.00,A,4308.00901,N,14113.38831,E,0.018,,180119,,,A*67
$GNRMC,010321.00,A,4308.00906,N,14113.38841,E,0.043,,180119,,,A*68
$GNRMC,010322.00,A,4308.00918,N,14113.38849,E,0.047,,180119,,,A*68
$GNRMC,010323.00,A,4308.00937,N,14113.38860,E,0.013,,180119,,,A*6E
$GNRMC,010324.00,A,4308.00961,N,14113.38870,E,0.021,,180119,,,A*6A
$GNRMC,010325.00,A,4308.00989,N,14113.38877,E,0.041,,180119,,,A*6C
$GNRMC,010326.00,A,4308.00995,N,14113.38885,E,0.015,,180119,,,A*6E
$GNRMC,010341.00,A,4308.00956,N,14113.38828,E,0.034,,180119,,,A*64
$GNRMC,010342.00,A,4308.00942,N,14113.38816,E,0.024,,180119,,,A*6E
$GNRMC,010343.00,A,4308.00932,N,14113.38810,E,0.099,,180119,,,A*68
$GNRMC,010344.00,A,4308.00918,N,14113.38804,E,0.037,,180119,,,A*66
$GNRMC,010345.00,A,4308.00907,N,14113.38799,E,0.043,,180119,,,A*61
$GNRMC,010346.00,A,4308.00898,N,14113.38792,E,0.076,,180119,,,A*68
$GNRMC,010347.00,A,4308.00889,N,14113.38785,E,0.051,,180119,,,A*6A
$GNRMC,010348.00,A,4308.00882,N,14113.38779,E,0.045,,180119,,,A*68
$GNRMC,010349.00,A,4308.00875,N,14113.38775,E,0.066,,180119,,,A*6C
$GNRMC,010350.00,A,4308.00870,N,14113.38777,E,0.094,,180119,,,A*6E
$GNRMC,010404.00,A,4308.00710,N,14113.38799,E,0.065,,180119,,,A*6F
$GNRMC,010405.00,A,4308.00693,N,14113.38802,E,0.052,,180119,,,A*6D
$GNRMC,010406.00,A,4308.00674,N,14113.38804,E,0.035,,180119,,,A*60
$GNRMC,010407.00,A,4308.00657,N,14113.38810,E,0.013,,180119,,,A*61
$GNRMC,010408.00,A,4308.00630,N,14113.38818,E,0.025,,180119,,,A*62
$GNRMC,010409.00,A,4308.00606,N,14113.38830,E,0.072,,180119,,,A*6E
$GNRMC,010410.00,A,4308.00587,N,14113.38844,E,0.102,,180119,,,A*69
$GNRMC,010411.00,A,4308.00573,N,14113.38857,E,0.037,,180119,,,A*66
$GNRMC,010412.00,A,4308.00561,N,14113.38872,E,0.027,,180119,,,A*60
$GNRMC,010427.00,A,4308.00447,N,14113.38926,E,0.021,,180119,,,A*65
$GNRMC,010428.00,A,4308.00444,N,14113.38923,E,0.055,,180119,,,A*6F
$GNRMC,010429.00,A,4308.00443,N,14113.38921,E,0.043,,180119,,,A*6C
$GNRMC,010430.00,A,4308.00443,N,14113.38918,E,0.062,,180119,,,A*6D
$GNRMC,010431.00,A,4308.00441,N,14113.38912,E,0.051,,180119,,,A*64
$GNRMC,010432.00,A,4308.00440,N,14113.38904,E,0.041,,180119,,,A*60
$GNRMC,010433.00,A,4308.00439,N,14113.38897,E,0.049,,180119,,,A*6C
$GNRMC,010434.00,A,4308.00438,N,14113.38891,E,0.023,,180119,,,A*60
$GNRMC,010435.00,A,4308.00437,N,14113.38886,E,0.026,,180119,,,A*6D
$GNRMC,010449.00,A,4308.00534,N,14113.38852,E,0.028,,180119,,,A*63
$GNRMC,010450.00,A,4308.00543,N,14113.38850,E,0.042,,180119,,,A*65
$GNRMC,010451.00,A,4308.00553,N,14113.38857,E,0.028,,180119,,,A*6E
$GNRMC,010452.00,A,4308.00562,N,14113.38865,E,0.025,,180119,,,A*63
$GNRMC,010453.00,A,4308.00572,N,14113.38873,E,0.028,,180119,,,A*69
$GNRMC,010454.00,A,4308.00582,N,14113.38883,E,0.014,,180119,,,A*61
$GNRMC,010455.00,A,4308.00594,N,14113.38894,E,0.029,,180119,,,A*6F
$GNRMC,010456.00,A,4308.00604,N,14113.38903,E,0.004,,180119,,,A*66
$GNRMC,010457.00,A,4308.00613,N,14113.38915,E,0.016,,180119,,,A*65
$GNRMC,010512.00,A,4308.00682,N,14113.39101,E,0.006,,180119,,,A*60
$GNRMC,010513.00,A,4308.00680,N,14113.39112,E,0.097,,180119,,,A*69
$GNRMC,010514.00,A,4308.00678,N,14113.39124,E,0.098,,180119,,,A*63
$GNRMC,010515.00,A,4308.00677,N,14113.39136,E,0.021,,180119,,,A*6C
$GNRMC,010516.00,A,4308.00680,N,14113.39146,E,0.055,,180119,,,A*63
$GNRMC,010517.00,A,4308.00682,N,14113.39153,E,0.027,,180119,,,A*61
$GNRMC,010518.00,A,4308.00684,N,14113.39160,E,0.065,,180119,,,A*6E
$GNRMC,010519.00,A,4308.00688,N,14113.39163,E,0.024,,180119,,,A*65
$GNRMC,010520.00,A,4308.00694,N,14113.39167,E,0.105,,180119,,,A*64
$GNRMC,010534.00,A,4308.00797,N,14113.39256,E,0.035,,180119,,,A*60
$GNRMC,010535.00,A,4308.00803,N,14113.39262,E,0.106,,180119,,,A*65
$GNRMC,010536.00,A,4308.00811,N,14113.39267,E,0.063,,180119,,,A*62
$GNRMC,010537.00,A,4308.00818,N,14113.39272,E,0.046,,180119,,,A*69
$GNRMC,010538.00,A,4308.00825,N,14113.39274,E,0.037,,180119,,,A*68
$GNRMC,010539.00,A,4308.00833,N,14113.39275,E,0.041,,180119,,,A*6E
$GNRMC,010540.00,A,4308.00839,N,14113.39272,E,0.110,,180119,,,A*68
$GNRMC,010541.00,A,4308.00842,N,14113.39269,E,0.129,,180119,,,A*65
$GNRMC,010542.00,A,4308.00849,N,14113.39266,E,0.085,,180119,,,A*65
$GNRMC,010556.00,A,4308.00865,N,14113.39127,E,0.052,,180119,,,A*62
$GNRMC,010557.00,A,4308.00864,N,14113.39117,E,0.026,,180119,,,A*62
$GNRMC,010558.00,A,4308.00859,N,14113.39100,E,0.211,,180119,,,A*63
$GNRMC,010559.00,A,4308.00856,N,14113.39081,E,0.108,,180119,,,A*6E
$GNRMC,010600.00,A,4308.00857,N,14113.39061,E,0.211,,180119,,,A*65
$GNRMC,010601.00,A,4308.00859,N,14113.39042,E,0.217,,180119,,,A*6D
$GNRMC,010602.00,A,4308.00863,N,14113.39023,E,0.136,,180119,,,A*60
$GNRMC,010603.00,A,4308.00859,N,14113.38999,E,0.060,,180119,,,A*63
$GNRMC,010604.00,A,4308.00855,N,14113.38976,E,0.070,,180119,,,A*68
$GNRMC,010618.00,A,4308.00809,N,14113.38712,E,0.044,,180119,,,A*67
$GNRMC,010619.00,A,4308.00807,N,14113.38691,E,0.142,,180119,,,A*65
$GNRMC,010620.00,A,4308.00806,N,14113.38669,E,0.035,,180119,,,A*68
$GNRMC,010621.00,A,4308.00792,N,14113.38641,E,0.187,,180119,,,A*69
$GNRMC,010622.00,A,4308.00776,N,14113.38616,E,0.140,,180119,,,A*69
$GNRMC,010623.00,A,4308.00763,N,14113.38595,E,0.100,,180119,,,A*60
$GNRMC,010624.00,A,4308.00751,N,14113.38573,E,0.069,,180119,,,A*60
$GNRMC,010625.00,A,4308.00739,N,14113.38553,E,0.073,,180119,,,A*66
$GNRMC,010626.00,A,4308.00744,N,14113.38548,E,0.424,,180119,,,A*63
$GNRMC,010640.00,A,4308.01266,N,14113.38053,E,6.033,327.79,180119,,,A*7A
$GNRMC,010641.00,A,4308.01348,N,14113.37844,E,6.215,308.84,180119,,,A*7E
$GNRMC,010642.00,A,4308.01393,N,14113.37608,E,6.252,291.05,180119,,,A*76
$GNRMC,010643.00,A,4308.01405,N,14113.37374,E,5.665,276.17,180119,,,A*78
$GNRMC,010644.00,A,4308.01426,N,14113.37205,E,3.766,281.43,180119,,,A*74
$GNRMC,010645.00,A,4308.01452,N,14113.37091,E,2.474,289.28,180119,,,A*7D
$GNRMC,010646.00,A,4308.01452,N,14113.37049,E,0.075,,180119,,,A*6B
$GNRMC,010647.00,A,4308.01442,N,14113.37032,E,0.049,,180119,,,A*68
$GNRMC,010648.00,A,4308.01432,N,14113.37018,E,0.020,,180119,,,A*67
$GNRMC,010702.00,A,4308.01346,N,14113.36890,E,0.009,,180119,,,A*6E
$GNRMC,010703.00,A,4308.01342,N,14113.36885,E,0.010,,180119,,,A*67
$GNRMC,010704.00,A,4308.01338,N,14113.36880,E,0.008,,180119,,,A*61
$GNRMC,010705.00,A,4308.01335,N,14113.36874,E,0.009,,180119,,,A*67
$GNRMC,010706.00,A,4308.01302,N,14113.36830,E,0.014,,180119,,,A*6C
$GNRMC,010707.00,A,4308.01282,N,14113.36800,E,0.004,,180119,,,A*66
$GNRMC,010708.00,A,4308.01270,N,14113.36775,E,0.009,,180119,,,A*64
$GNRMC,010709.00,A,4308.01261,N,14113.36756,E,0.005,,180119,,,A*68
$GNRMC,010710.00,A,4308.01253,N,14113.36740,E,0.003,,180119,,,A*60
$GNRMC,010724.00,A,4308.01162,N,14113.36596,E,0.022,,180119,,,A*6C
$GNRMC,010725.00,A,4308.01158,N,14113.36592,E,0.013,,180119,,,A*62
$GNRMC,010726.00,A,4308.01155,N,14113.36588,E,0.004,,180119,,,A*61
$GNRMC,010727.00,A,4308.01153,N,14113.36585,E,0.007,,180119,,,A*68
$GNRMC,010728.00,A,4308.01150,N,14113.36582,E,0.011,,180119,,,A*64
$GNRMC,010729.00,A,4308.01148,N,14113.36580,E,0.021,,180119,,,A*6D
$GNRMC,010730.00,A,4308.01146,N,14113.36579,E,0.012,,180119,,,A*6D
$GNRMC,010731.00,A,4308.01144,N,14113.36577,E,0.015,,180119,,,A*67
$GNRMC,010732.00,A,4308.01142,N,14113.36577,E,0.007,,180119,,,A*61
$GNRMC,010746.00,A,4308.01094,N,14113.36573,E,0.007,,180119,,,A*6C
$GNRMC,010747.00,A,4308.01092,N,14113.36571,E,0.021,,180119,,,A*6D
$GNRMC,010748.00,A,4308.01091,N,14113.36569,E,0.041,,180119,,,A*6E
$GNRMC,010749.00,A,4308.01090,N,14113.36567,E,0.007,,180119,,,A*62
$GNRMC,010750.00,A,4308.01089,N,14113.36565,E,0.017,,180119,,,A*61
$GNRMC,010751.00,A,4308.01089,N,14113.36562,E,0.016,,180119,,,A*66
$GNRMC,010752.00,A,4308.01090,N,14113.36559,E,0.014,,180119,,,A*67
$GNRMC,010753.00,A,4308.01090,N,14113.36556,E,0.003,,180119,,,A*6F
$GNRMC,010754.00,A,4308.01091,N,14113.36552,E,0.007,,180119,,,A*69
$GNRMC,010808.00,A,4308.01125,N,14113.36523,E,0.012,,180119,,,A*63
$GNRMC,010809.00,A,4308.01129,N,14113.36523,E,0.009,,180119,,,A*64
$GNRMC,010810.00,A,4308.01133,N,14113.36522,E,0.020,,180119,,,A*6D
$GNRMC,010811.00,A,4308.01137,N,14113.36520,E,0.012,,180119,,,A*6B
$GNRMC,010812.00,A,4308.01140,N,14113.36518,E,0.005,,180119,,,A*65
$GNRMC,010813.00,A,4308.01144,N,14113.36517,E,0.009,,180119,,,A*63
$GNRMC,010814.00,A,4308.01148,N,14113.36515,E,0.015,,180119,,,A*67
$GNRMC,010815.00,A,4308.01152,N,14113.36514,E,0.010,,180119,,,A*69
$GNRMC,010816.00,A,4308.01156,N,14113.36513,E,0.013,,180119,,,A*6A
$GNRMC,010830.00,A,4308.01186,N,14113.36531,E,0.005,,180119,,,A*64
$GNRMC,010831.00,A,4308.01187,N,14113.36534,E,0.009,,180119,,,A*6D
$GNRMC,010832.00,A,4308.01188,N,14113.36538,E,0.014,,180119,,,A*61
$GNRMC,010833.00,A,4308.01189,N,14113.36541,E,0.008,,180119,,,A*62
$GNRMC,010834.00,A,4308.01190,N,14113.36543,E,0.010,,180119,,,A*66
$GNRMC,010835.00,A,4308.01191,N,14113.36546,E,0.007,,180119,,,A*65
$GNRMC,010836.00,A,4308.01193,N,14113.36549,E,0.009,,180119,,,A*65
$GNRMC,010837.00,A,4308.01194,N,14113.36552,E,0.002,,180119,,,A*62
$GNRMC,010838.00,A,4308.01194,N,14113.36553,E,0.023,,180119,,,A*6F
$GNRMC,010852.00,A,4308.01224,N,14113.36561,E,0.006,,180119,,,A*6D
$GNRMC,010853.00,A,4308.01226,N,14113.36559,E,0.012,,180119,,,A*60
$GNRMC,010854.00,A,4308.01228,N,14113.36558,E,0.013,,180119,,,A*69
$GNRMC,010855.00,A,4308.01231,N,14113.36555,E,0.022,,180119,,,A*6F
$GNRMC,010856.00,A,4308.01233,N,14113.36551,E,0.010,,180119,,,A*6B
$GNRMC,010857.00,A,4308.01234,N,14113.36548,E,0.009,,180119,,,A*6D
$GNRMC,010858.00,A,4308.01235,N,14113.36546,E,0.001,,180119,,,A*65
$GNRMC,010859.00,A,4308.01236,N,14113.36544,E,0.011,,180119,,,A*64
$GNRMC,010900.00,A,4308.01235,N,14113.36544,E,0.006,,180119,,,A*6C
$GNRMC,010914.00,A,4308.01231,N,14113.36526,E,0.002,,180119,,,A*6D
$GNRMC,010915.00,A,4308.01231,N,14113.36527,E,0.006,,180119,,,A*69
$GNRMC,010916.00,A,4308.01232,N,14113.36528,E,0.014,,180119,,,A*65
$GNRMC,010917.00,A,4308.01232,N,14113.36528,E,0.012,,180119,,,A*62
$GNRMC,010918.00,A,4308.01233,N,14113.36529,E,0.013,,180119,,,A*6C
$GNRMC,010919.00,A,4308.01234,N,14113.36529,E,0.016,,180119,,,A*6F
$GNRMC,010920.00,A,4308.01236,N,14113.36528,E,0.005,,180119,,,A*64
$GNRMC,010921.00,A,4308.01237,N,14113.36527,E,0.005,,180119,,,A*6B
$GNRMC,010922.00,A,4308.01238,N,14113.36527,E,0.006,,180119,,,A*64
$GNRMC,010936.00,A,4308.01250,N,14113.36559,E,0.010,,180119,,,A*61
$GNRMC,010937.00,A,4308.01250,N,14113.36561,E,0.014,,180119,,,A*6F
$GNRMC,010938.00,A,4308.01248,N,14113.36564,E,0.006,,180119,,,A*6F
$GNRMC,010939.00,A,4308.01246,N,14113.36567,E,0.002,,180119,,,A*67
$GNRMC,010940.00,A,4308.01244,N,14113.36570,E,0.002,,180119,,,A*6D
$GNRMC,010941.00,A,4308.01241,N,14113.36573,E,0.005,,180119,,,A*6D
$GNRMC,010942.00,A,4308.01238,N,14113.36575,E,0.006,,180119,,,A*65
$GNRMC,010943.00,A,4308.01235,N,14113.36577,E,0.011,,180119,,,A*6D
$GNRMC,010944.00,A,4308.01233,N,14113.36579,E,0.007,,180119,,,A*65
$GNRMC,010958.00,A,4308.01208,N,14113.36598,E,0.004,,180119,,,A*6C
$GNRMC,010959.00,A,4308.01207,N,14113.36598,E,0.006,,180119,,,A*60
$GNRMC,011000.00,A,4308.01207,N,14113.36599,E,0.010,,180119,,,A*62
$GNRMC,011001.00,A,4308.01208,N,14113.36599,E,0.013,,180119,,,A*6F
$GNRMC,011002.00,A,4308.01208,N,14113.36599,E,0.015,,180119,,,A*6A
$GNRMC,011003.00,A,4308.01209,N,14113.36599,E,0.007,,180119,,,A*69
$GNRMC,011004.00,A,4308.01209,N,14113.36599,E,0.008,,180119,,,A*61
$GNRMC,011005.00,A,4308.01210,N,14113.36599,E,0.011,,180119,,,A*60
$GNRMC,011006.00,A,4308.01211,N,14113.36599,E,0.012,,180119,,,A*61
$GNRMC,011021.00,A,4308.01580,N,14113.36005,E,5.511,306.50,180119,,,A*76
$GNRMC,011022.00,A,4308.01673,N,14113.35821,E,6.048,304.15,180119,,,A*7E
$GNRMC,011023.00,A,4308.01769,N,14113.35618,E,6.546,302.52,180119,,,A*7F
$GNRMC,011024.00,A,4308.01872,N,14113.35397,E,7.018,302.29,180119,,,A*7C
$GNRMC,011025.00,A,4308.01979,N,14113.35158,E,7.553,300.93,180119,,,A*7F
$GNRMC,011026.00,A,4308.02090,N,14113.34898,E,8.034,300.06,180119,,,A*72
$GNRMC,011027.00,A,4308.02203,N,14113.34620,E,8.501,299.46,180119,,,A*70
$GNRMC,011028.00,A,4308.02325,N,14113.34325,E,9.042,299.40,180119,,,A*7F
$GNRMC,011029.00,A,4308.02454,N,14113.34018,E,9.448,299.71,180119,,,A*7E
$GNRMC,011043.00,A,4308.04418,N,14113.29849,E,7.198,281.78,180119,,,A*7A
$GNRMC,011044.00,A,4308.04420,N,14113.29574,E,7.193,266.43,180119,,,A*7F
$GNRMC,011045.00,A,4308.04372,N,14113.29315,E,6.786,250.93,180119,,,A*74
$GNRMC,011046.00,A,4308.04290,N,14113.29101,E,6.198,239.31,180119,,,A*73
$GNRMC,011047.00,A,4308.04182,N,14113.28924,E,6.047,228.10,180119,,,A*7C
$GNRMC,011048.00,A,4308.04050,N,14113.28773,E,6.347,216.80,180119,,,A*76
$GNRMC,011049.00,A,4308.03888,N,14113.28658,E,6.821,205.26,180119,,,A*70
$GNRMC,011050.00,A,4308.03704,N,14113.28565,E,7.145,198.89,180119,,,A*76
$GNRMC,011051.00,A,4308.03510,N,14113.28477,E,7.475,198.01,180119,,,A*74
$GNRMC,011105.00,A,4308.01623,N,14113.29341,E,0.360,110.15,180119,,,A*77
$GNRMC,011106.00,A,4308.01640,N,14113.29318,E,1.193,331.11,180119,,,A*77
$GNRMC,011107.00,A,4308.01696,N,14113.29239,E,3.630,315.16,180119,,,A*72
$GNRMC,011108.00,A,4308.01763,N,14113.29119,E,4.146,308.58,180119,,,A*70
$GNRMC,011109.00,A,4308.01818,N,14113.28950,E,5.159,294.24,180119,,,A*76
$GNRMC,011110.00,A,4308.01863,N,14113.28746,E,5.769,287.15,180119,,,A*7E
$GNRMC,011111.00,A,4308.01918,N,14113.28551,E,5.425,292.98,180119,,,A*7C
$GNRMC,011112.00,A,4308.01983,N,14113.28369,E,5.426,296.91,180119,,,A*7E
$GNRMC,011113.00,A,4308.02053,N,14113.28205,E,4.703,299.49,180119,,,A*7C
$GNRMC,011127.00,A,4308.02134,N,14113.28020,E,0.014,,180119,,,A*6A
$GNRMC,011128.00,A,4308.02136,N,14113.28018,E,0.091,,180119,,,A*61
$GNRMC,011129.00,A,4308.02139,N,14113.28015,E,0.019,,180119,,,A*62
$GNRMC,011130.00,A,4308.02141,N,14113.28014,E,0.031,,180119,,,A*6E
$GNRMC,011131.00,A,4308.02142,N,14113.28013,E,0.032,,180119,,,A*68
$GNRMC,011132.00,A,4308.02142,N,14113.28014,E,0.021,,180119,,,A*6E
$GNRMC,011133.00,A,4308.02142,N,14113.28013,E,0.037,,180119,,,A*6F
$GNRMC,011134.00,A,4308.02139,N,14113.28012,E,0.009,,180119,,,A*68
$GNRMC,011135.00,A,4308.02133,N,14113.28010,E,0.015,,180119,,,A*6C
$GNRMC,011150.00,A,4308.02074,N,14113.27989,E,0.014,,180119,,,A*6A
$GNRMC,011151.00,A,4308.02072,N,14113.27985,E,0.002,,180119,,,A*66
$GNRMC,011152.00,A,4308.02071,N,14113.27981,E,0.012,,180119,,,A*63
$GNRMC,011153.00,A,4308.02070,N,14113.27978,E,0.006,,180119,,,A*60
$GNRMC,011154.00,A,4308.02070,N,14113.27976,E,0.012,,180119,,,A*6C
$GNRMC,011155.00,A,4308.02070,N,14113.27975,E,0.014,,180119,,,A*68
$GNRMC,011156.00,A,4308.02070,N,14113.27975,E,0.010,,180119,,,A*6F
$GNRMC,011157.00,A,4308.02070,N,14113.27975,E,0.013,,180119,,,A*6D
$GNRMC,011158.00,A,4308.02071,N,14113.27974,E,0.006,,180119,,,A*66
$GNRMC,011159.00,A,4308.02072,N,14113.27974,E,0.004,,180119,,,A*66
$GNRMC,011214.00,A,4308.02102,N,14113.27989,E,0.010,,180119,,,A*6D
$GNRMC,011215.00,A,4308.02105,N,14113.27992,E,0.012,,180119,,,A*63
$GNRMC,011216.00,A,4308.02107,N,14113.27994,E,0.003,,180119,,,A*64
$GNRMC,011217.00,A,4308.02108,N,14113.27996,E,0.020,,180119,,,A*69
$GNRMC,011218.00,A,4308.02108,N,14113.27998,E,0.009,,180119,,,A*63
$GNRMC,011219.00,A,4308.02108,N,14113.28000,E,0.002,,180119,,,A*6E
$GNRMC,011220.00,A,4308.02109,N,14113.28002,E,0.010,,180119,,,A*64
$GNRMC,011221.00,A,4308.02109,N,14113.28003,E,0.012,,180119,,,A*66
$GNRMC,011222.00,A,4308.02109,N,14113.28004,E,0.014,,180119,,,A*64
$GNRMC,011236.00,A,4308.02103,N,14113.27978,E,0.013,,180119,,,A*61
$GNRMC,011237.00,A,4308.02102,N,14113.27977,E,0.009,,180119,,,A*65
$GNRMC,011238.00,A,4308.02100,N,14113.27977,E,0.033,,180119,,,A*61
$GNRMC,011239.00,A,4308.02097,N,14113.27977,E,0.012,,180119,,,A*6C
$GNRMC,011240.00,A,4308.02094,N,14113.27978,E,0.005,,180119,,,A*68
$GNRMC,011241.00,A,4308.02091,N,14113.27978,E,0.011,,180119,,,A*69
$GNRMC,011242.00,A,4308.02087,N,14113.27979,E,0.009,,180119,,,A*65
$GNRMC,011243.00,A,4308.02084,N,14113.27979,E,0.010,,180119,,,A*6F
$GNRMC,011244.00,A,4308.02080,N,14113.27979,E,0.020,,180119,,,A*6F
$GNRMC,011258.00,A,4308.02030,N,14113.27963,E,0.018,,180119,,,A*69
$GNRMC,011259.00,A,4308.02027,N,14113.27964,E,0.037,,180119,,,A*64
$GNRMC,011300.00,A,4308.02024,N,14113.27963,E,0.029,,180119,,,A*62
$GNRMC,011301.00,A,4308.02022,N,14113.27963,E,0.008,,180119,,,A*66
$GNRMC,011302.00,A,4308.02019,N,14113.27962,E,0.009,,180119,,,A*6D
$GNRMC,011303.00,A,4308.02017,N,14113.27962,E,0.009,,180119,,,A*62
$GNRMC,011304.00,A,4308.02015,N,14113.27960,E,0.016,,180119,,,A*6B
$GNRMC,011305.00,A,4308.02015,N,14113.27958,E,0.007,,180119,,,A*61
$GNRMC,011306.00,A,4308.02014,N,14113.27957,E,0.006,,180119,,,A*6D
$GNRMC,011320.00,A,4308.02026,N,14113.27936,E,0.024,,180119,,,A*6F
$GNRMC,011322.00,A,4308.02019,N,14113.27937,E,0.019,,180119,,,A*6E
$GNRMC,011323.00,A,4308.02015,N,14113.27937,E,0.028,,180119,,,A*61
$GNRMC,011324.00,A,4308.02011,N,14113.27938,E,0.027,,180119,,,A*62
$GNRMC,011325.00,A,4308.02008,N,14113.27941,E,0.012,,180119,,,A*63
$GNRMC,011326.00,A,4308.02005,N,14113.27943,E,0.005,,180119,,,A*69
$GNRMC,011327.00,A,4308.02004,N,14113.27946,E,0.009,,180119,,,A*60
$GNRMC,011328.00,A,4308.02002,N,14113.27948,E,0.007,,180119,,,A*69
$GNRMC,011342.00,A,4308.01397,N,14113.29027,E,3.414,120.58,180119,,,A*72
$GNRMC,011343.00,A,4308.01364,N,14113.29145,E,3.300,115.21,180119,,,A*70
$GNRMC,011344.00,A,4308.01324,N,14113.29260,E,3.368,117.51,180119,,,A*7C
$GNRMC,011345.00,A,4308.01279,N,14113.29374,E,3.361,116.89,180119,,,A*7D
$GNRMC,011346.00,A,4308.01243,N,14113.29494,E,3.427,114.91,180119,,,A*70
$GNRMC,011347.00,A,4308.01206,N,14113.29607,E,3.215,117.26,180119,,,A*70
$GNRMC,011348.00,A,4308.01160,N,14113.29729,E,3.693,118.42,180119,,,A*76
$GNRMC,011349.00,A,4308.01111,N,14113.29859,E,3.985,118.87,180119,,,A*78
$GNRMC,011350.00,A,4308.01057,N,14113.29996,E,4.083,119.24,180119,,,A*71
$GNRMC,011404.00,A,4308.00245,N,14113.32141,E,4.645,116.38,180119,,,A*71
$GNRMC,011405.00,A,4308.00187,N,14113.32298,E,4.654,117.09,180119,,,A*79
$GNRMC,011406.00,A,4308.00132,N,14113.32450,E,4.397,116.71,180119,,,A*72
$GNRMC,011407.00,A,4308.00079,N,14113.32599,E,4.208,115.62,180119,,,A*7F
$GNRMC,011408.00,A,4308.00023,N,14113.32751,E,4.436,116.44,180119,,,A*75
$GNRMC,011409.00,A,4307.99970,N,14113.32904,E,4.391,114.78,180119,,,A*7D
$GNRMC,011410.00,A,4307.99918,N,14113.33057,E,4.366,115.20,180119,,,A*71
$GNRMC,011411.00,A,4307.99868,N,14113.33194,E,3.509,114.35,180119,,,A*75
$GNRMC,011412.00,A,4307.99828,N,14113.33305,E,2.974,115.21,180119,,,A*7B
$GNRMC,011427.00,A,4307.99962,N,14113.32866,E,5.879,291.86,180119,,,A*74
$GNRMC,011428.00,A,4308.00030,N,14113.32651,E,6.325,294.77,180119,,,A*7A
$GNRMC,011429.00,A,4308.00113,N,14113.32439,E,6.736,299.62,180119,,,A*78
$GNRMC,011430.00,A,4308.00207,N,14113.32215,E,6.936,299.81,180119,,,A*7D
$GNRMC,011431.00,A,4308.00308,N,14113.31981,E,7.351,300.47,180119,,,A*76
$GNRMC,011432.00,A,4308.00414,N,14113.31733,E,7.603,299.72,180119,,,A*7D
$GNRMC,011433.00,A,4308.00519,N,14113.31474,E,7.935,298.73,180119,,,A*7A
$GNRMC,011434.00,A,4308.00627,N,14113.31197,E,8.373,297.37,180119,,,A*73
$GNRMC,011435.00,A,4308.00731,N,14113.30921,E,7.986,296.77,180119,,,A*7A
$GNRMC,011449.00,A,4308.01894,N,14113.28584,E,3.848,311.50,180119,,,A*76
$GNRMC,011450.00,A,4308.01961,N,14113.28475,E,3.684,308.85,180119,,,A*74
$GNRMC,011451.00,A,4308.02023,N,14113.28368,E,3.505,307.56,180119,,,A*79
$GNRMC,011452.00,A,4308.02080,N,14113.28273,E,3.035,306.33,180119,,,A*7C
$GNRMC,011453.00,A,4308.02119,N,14113.28191,E,2.452,304.19,180119,,,A*7D
$GNRMC,011454.00,A,4308.02153,N,14113.28115,E,2.375,302.26,180119,,,A*70
$GNRMC,011455.00,A,4308.02179,N,14113.28057,E,1.696,301.53,180119,,,A*74
$GNRMC,011456.00,A,4308.02196,N,14113.28018,E,1.145,300.65,180119,,,A*70
$GNRMC,011457.00,A,4308.02203,N,14113.28011,E,0.028,,180119,,,A*62
$GNRMC,011511.00,A,4308.02224,N,14113.28054,E,0.019,,180119,,,A*67
$GNRMC,011512.00,A,4308.02221,N,14113.28061,E,0.016,,180119,,,A*68
$GNRMC,011513.00,A,4308.02221,N,14113.28065,E,0.012,,180119,,,A*69
$GNRMC,011514.00,A,4308.02221,N,14113.28069,E,0.021,,180119,,,A*62
$GNRMC,011515.00,A,4308.02224,N,14113.28073,E,0.009,,180119,,,A*67
$GNRMC,011516.00,A,4308.02227,N,14113.28076,E,0.014,,180119,,,A*6E
$GNRMC,011517.00,A,4308.02229,N,14113.28079,E,0.012,,180119,,,A*68
$GNRMC,011518.00,A,4308.02231,N,14113.28082,E,0.007,,180119,,,A*6E
$GNRMC,011519.00,A,4308.02233,N,14113.28086,E,0.010,,180119,,,A*6F
$GNRMC,011533.00,A,4308.02285,N,14113.28097,E,0.009,,180119,,,A*62
$GNRMC,011534.00,A,4308.02288,N,14113.28097,E,0.016,,180119,,,A*66
$GNRMC,011535.00,A,4308.02292,N,14113.28097,E,0.033,,180119,,,A*6B
$GNRMC,011536.00,A,4308.02296,N,14113.28096,E,0.004,,180119,,,A*69
$GNRMC,011537.00,A,4308.02298,N,14113.28095,E,0.014,,180119,,,A*64
$GNRMC,011538.00,A,4308.02300,N,14113.28094,E,0.006,,180119,,,A*69
$GNRMC,011539.00,A,4308.02301,N,14113.28094,E,0.019,,180119,,,A*67
$GNRMC,011540.00,A,4308.02302,N,14113.28094,E,0.006,,180119,,,A*64
$GNRMC,011541.00,A,4308.02304,N,14113.28095,E,0.006,,180119,,,A*62
$GNRMC,011555.00,A,4308.02247,N,14113.28132,E,0.003,,180119,,,A*68
$GNRMC,011556.00,A,4308.02243,N,14113.28135,E,0.014,,180119,,,A*6E
$GNRMC,011557.00,A,4308.02240,N,14113.28137,E,0.021,,180119,,,A*68
$GNRMC,011558.00,A,4308.02237,N,14113.28137,E,0.012,,180119,,,A*67
$GNRMC,011559.00,A,4308.02232,N,14113.28137,E,0.016,,180119,,,A*67
$GNRMC,011600.00,A,4308.02228,N,14113.28136,E,0.018,,180119,,,A*6C
$GNRMC,011601.00,A,4308.02224,N,14113.28136,E,0.002,,180119,,,A*6A
$GNRMC,011602.00,A,4308.02222,N,14113.28134,E,0.009,,180119,,,A*66
$GNRMC,011603.00,A,4308.02219,N,14113.28131,E,0.010,,180119,,,A*62
$GNRMC,011617.00,A,4308.02173,N,14113.28116,E,0.033,,180119,,,A*6C
$GNRMC,011618.00,A,4308.02172,N,14113.28113,E,0.015,,180119,,,A*63
$GNRMC,011619.00,A,4308.02171,N,14113.28111,E,0.008,,180119,,,A*6F
$GNRMC,011620.00,A,4308.02171,N,14113.28109,E,0.023,,180119,,,A*65
$GNRMC,011621.00,A,4308.02170,N,14113.28108,E,0.017,,180119,,,A*63
$GNRMC,011622.00,A,4308.02169,N,14113.28108,E,0.017,,180119,,,A*68
$GNRMC,011623.00,A,4308.02168,N,14113.28108,E,0.018,,180119,,,A*67
$GNRMC,011624.00,A,4308.02164,N,14113.28112,E,0.288,274.14,180119,,,A*76
$GNRMC,011625.00,A,4308.02140,N,14113.28154,E,1.915,130.57,180119,,,A*79
$GNRMC,011639.00,A,4308.01114,N,14113.30306,E,5.698,118.56,180119,,,A*7F
$GNRMC,011640.00,A,4308.01039,N,14113.30494,E,5.628,119.30,180119,,,A*79
$GNRMC,011641.00,A,4308.00965,N,14113.30682,E,5.659,118.38,180119,,,A*73
$GNRMC,011642.00,A,4308.00889,N,14113.30873,E,5.662,118.31,180119,,,A*72
$GNRMC,011643.00,A,4308.00815,N,14113.31062,E,5.649,118.00,180119,,,A*74
$GNRMC,011644.00,A,4308.00742,N,14113.31249,E,5.656,118.47,180119,,,A*78
$GNRMC,011645.00,A,4308.00672,N,14113.31431,E,5.423,117.76,180119,,,A*7F
$GNRMC,011646.00,A,4308.00601,N,14113.31617,E,5.596,117.59,180119,,,A*7C
$GNRMC,011647.00,A,4308.00532,N,14113.31797,E,5.351,118.13,180119,,,A*7B
$GNRMC,011701.00,A,4307.99835,N,14113.33607,E,0.010,,180119,,,A*60
$GNRMC,011702.00,A,4307.99831,N,14113.33612,E,0.029,,180119,,,A*69
$GNRMC,011703.00,A,4307.99825,N,14113.33621,E,0.012,,180119,,,A*65
$GNRMC,011704.00,A,4307.99821,N,14113.33625,E,0.143,,180119,,,A*67
$GNRMC,011705.00,A,4307.99822,N,14113.33619,E,0.497,261.39,180119,,,A*77
$GNRMC,011706.00,A,4307.99842,N,14113.33575,E,1.922,301.09,180119,,,A*7D
$GNRMC,011707.00,A,4307.99886,N,14113.33485,E,3.299,303.98,180119,,,A*79
$GNRMC,011708.00,A,4307.99939,N,14113.33363,E,3.974,300.90,180119,,,A*7F
$GNRMC,011709.00,A,4307.99995,N,14113.33199,E,5.229,294.57,180119,,,A*7D
$GNRMC,011723.00,A,4308.01459,N,14113.29462,E,7.122,297.15,180119,,,A*73
$GNRMC,011724.00,A,4308.01540,N,14113.29223,E,6.821,294.81,180119,,,A*7B
$GNRMC,011725.00,A,4308.01624,N,14113.28994,E,6.596,297.71,180119,,,A*70
$GNRMC,011726.00,A,4308.01725,N,14113.28798,E,6.118,306.87,180119,,,A*73
$GNRMC,011727.00,A,4308.01840,N,14113.28651,E,5.355,318.75,180119,,,A*70
$GNRMC,011728.00,A,4308.01947,N,14113.28530,E,4.605,319.57,180119,,,A*7D
$GNRMC,011729.00,A,4308.02039,N,14113.28435,E,3.829,322.74,180119,,,A*75
$GNRMC,011730.00,A,4308.02113,N,14113.28355,E,3.132,322.04,180119,,,A*71
$GNRMC,011731.00,A,4308.02165,N,14113.28286,E,2.345,318.11,180119,,,A*70
$GNRMC,011745.00,A,4308.02250,N,14113.28137,E,0.019,,180119,,,A*63
$GNRMC,011746.00,A,4308.02250,N,14113.28138,E,0.030,,180119,,,A*64
$GNRMC,011747.00,A,4308.02250,N,14113.28140,E,0.027,,180119,,,A*6C
$GNRMC,011748.00,A,4308.02250,N,14113.28140,E,0.011,,180119,,,A*66
$GNRMC,011749.00,A,4308.02250,N,14113.28142,E,0.002,,180119,,,A*67
$GNRMC,011750.00,A,4308.02251,N,14113.28141,E,0.011,,180119,,,A*6F
$GNRMC,011751.00,A,4308.02252,N,14113.28140,E,0.009,,180119,,,A*65
$GNRMC,011752.00,A,4308.02253,N,14113.28139,E,0.017,,180119,,,A*66
$GNRMC,011753.00,A,4308.02254,N,14113.28139,E,0.008,,180119,,,A*6E
$GNRMC,011808.00,A,4308.02253,N,14113.28149,E,0.013,,180119,,,A*65
$GNRMC,011809.00,A,4308.02255,N,14113.28146,E,0.011,,180119,,,A*6F
$GNRMC,011810.00,A,4308.02257,N,14113.28143,E,0.006,,180119,,,A*66
$GNRMC,011811.00,A,4308.02259,N,14113.28141,E,0.006,,180119,,,A*6B
$GNRMC,011812.00,A,4308.02260,N,14113.28140,E,0.005,,180119,,,A*60
$GNRMC,011813.00,A,4308.02261,N,14113.28139,E,0.013,,180119,,,A*69
$GNRMC,011814.00,A,4308.02262,N,14113.28139,E,0.015,,180119,,,A*6B
$GNRMC,011815.00,A,4308.02262,N,14113.28140,E,0.012,,180119,,,A*63
$GNRMC,011816.00,A,4308.02264,N,14113.28140,E,0.026,,180119,,,A*61
$GNRMC,011830.00,A,4308.02275,N,14113.28142,E,0.008,,180119,,,A*6B
$GNRMC,011831.00,A,4308.02275,N,14113.28142,E,0.006,,180119,,,A*64
$GNRMC,011832.00,A,4308.02274,N,14113.28144,E,0.037,,180119,,,A*62
$GNRMC,011833.00,A,4308.02272,N,14113.28147,E,0.009,,180119,,,A*6B
$GNRMC,011834.00,A,4308.02271,N,14113.28150,E,0.006,,180119,,,A*66
$GNRMC,011835.00,A,4308.02270,N,14113.28153,E,0.018,,180119,,,A*6A
$GNRMC,011836.00,A,4308.02270,N,14113.28155,E,0.018,,180119,,,A*6F
$GNRMC,011837.00,A,4308.02270,N,14113.28158,E,0.004,,180119,,,A*6E
$GNRMC,011838.00,A,4308.02269,N,14113.28160,E,0.013,,180119,,,A*64
$GNRMC,011853.00,A,4308.02265,N,14113.28188,E,0.023,,180119,,,A*60
$GNRMC,011854.00,A,4308.02264,N,14113.28188,E,0.024,,180119,,,A*61
$GNRMC,011855.00,A,4308.02264,N,14113.28189,E,0.020,,180119,,,A*65
$GNRMC,011856.00,A,4308.02264,N,14113.28188,E,0.024,,180119,,,A*63
$GNRMC,011857.00,A,4308.02265,N,14113.28187,E,0.008,,180119,,,A*62
$GNRMC,011858.00,A,4308.02266,N,14113.28184,E,0.007,,180119,,,A*62
$GNRMC,011859.00,A,4308.02267,N,14113.28179,E,0.001,,180119,,,A*66
$GNRMC,011900.00,A,4308.02268,N,14113.28177,E,0.012,,180119,,,A*68
$GNRMC,011901.00,A,4308.02270,N,14113.28175,E,0.014,,180119,,,A*64
$GNRMC,011915.00,A,4308.02281,N,14113.28154,E,0.139,,180119,,,A*62
$GNRMC,011916.00,A,4308.02260,N,14113.28189,E,1.698,135.32,180119,,,A*7B
$GNRMC,011917.00,A,4308.02211,N,14113.28266,E,3.262,132.96,180119,,,A*74
$GNRMC,011918.00,A,4308.02141,N,14113.28395,E,4.741,126.14,180119,,,A*7C
$GNRMC,011919.00,A,4308.02063,N,14113.28548,E,5.032,124.29,180119,,,A*74
$GNRMC,011920.00,A,4308.01977,N,14113.28720,E,5.751,124.64,180119,,,A*76
$GNRMC,011921.00,A,4308.01880,N,14113.28919,E,6.599,123.04,180119,,,A*7E
$GNRMC,011922.00,A,4308.01784,N,14113.29132,E,6.641,120.84,180119,,,A*7B
$GNRMC,011937.00,A,4308.00276,N,14113.32823,E,6.925,119.05,180119,,,A*7B
$GNRMC,011938.00,A,4308.00182,N,14113.33049,E,6.755,119.46,180119,,,A*77
$GNRMC,011939.00,A,4308.00102,N,14113.33247,E,5.602,118.76,180119,,,A*70
$GNRMC,011940.00,A,4308.00033,N,14113.33424,E,5.090,117.83,180119,,,A*76
$GNRMC,011941.00,A,4307.99980,N,14113.33557,E,3.422,117.76,180119,,,A*7D
$GNRMC,011942.00,A,4307.99953,N,14113.33628,E,1.504,118.04,180119,,,A*76
$GNRMC,011943.00,A,4307.99939,N,14113.33664,E,0.856,118.32,180119,,,A*7D
$GNRMC,011944.00,A,4307.99933,N,14113.33682,E,0.351,117.55,180119,,,A*7A
$GNRMC,011959.00,A,4308.00851,N,14113.31211,E,9.265,298.83,180119,,,A*70
$GNRMC,012000.00,A,4308.00974,N,14113.30905,E,9.066,298.21,180119,,,A*76
$GNRMC,012001.00,A,4308.01097,N,14113.30607,E,8.917,299.77,180119,,,A*73
$GNRMC,012002.00,A,4308.01222,N,14113.30317,E,8.768,300.61,180119,,,A*78
$GNRMC,012003.00,A,4308.01351,N,14113.30036,E,8.685,302.73,180119,,,A*7F
$GNRMC,012004.00,A,4308.01484,N,14113.29764,E,8.608,303.99,180119,,,A*7F
$GNRMC,012005.00,A,4308.01615,N,14113.29507,E,8.100,305.33,180119,,,A*7A
$GNRMC,012006.00,A,4308.01735,N,14113.29265,E,7.411,303.34,180119,,,A*72
$GNRMC,012021.00,A,4308.02300,N,14113.28256,E,0.017,,180119,,,A*6B
$GNRMC,012022.00,A,4308.02300,N,14113.28258,E,0.014,,180119,,,A*65
$GNRMC,012023.00,A,4308.02299,N,14113.28259,E,0.004,,180119,,,A*65
$GNRMC,012024.00,A,4308.02298,N,14113.28261,E,0.000,,180119,,,A*6C
$GNRMC,012025.00,A,4308.02299,N,14113.28263,E,0.004,,180119,,,A*6A
$GNRMC,012026.00,A,4308.02300,N,14113.28265,E,0.004,,180119,,,A*6E
$GNRMC,012027.00,A,4308.02299,N,14113.28268,E,0.010,,180119,,,A*66
$GNRMC,012028.00,A,4308.02300,N,14113.28271,E,0.014,,180119,,,A*64
$GNRMC,012029.00,A,4308.02300,N,14113.28273,E,0.002,,180119,,,A*60
$GNRMC,012044.00,A,4308.02276,N,14113.28304,E,0.026,,180119,,,A*6C
$GNRMC,012045.00,A,4308.02275,N,14113.28307,E,0.006,,180119,,,A*6F
$GNRMC,012046.00,A,4308.02275,N,14113.28310,E,0.008,,180119,,,A*64
$GNRMC,012047.00,A,4308.02274,N,14113.28312,E,0.008,,180119,,,A*66
$GNRMC,012048.00,A,4308.02274,N,14113.28314,E,0.013,,180119,,,A*65
$GNRMC,012049.00,A,4308.02273,N,14113.28315,E,0.001,,180119,,,A*61
$GNRMC,012050.00,A,4308.02273,N,14113.28317,E,0.011,,180119,,,A*6A
$GNRMC,012051.00,A,4308.02272,N,14113.28317,E,0.002,,180119,,,A*68
$GNRMC,012052.00,A,4308.02273,N,14113.28317,E,0.022,,180119,,,A*68
$GNRMC,012107.00,A,4308.02289,N,14113.28325,E,0.010,,180119,,,A*6C
$GNRMC,012108.00,A,4308.02289,N,14113.28324,E,0.026,,180119,,,A*67
$GNRMC,012109.00,A,4308.02288,N,14113.28323,E,0.026,,180119,,,A*60
$GNRMC,012110.00,A,4308.02288,N,14113.28323,E,0.008,,180119,,,A*64
$GNRMC,012111.00,A,4308.02287,N,14113.28323,E,0.005,,180119,,,A*67
$GNRMC,012112.00,A,4308.02288,N,14113.28323,E,0.002,,180119,,,A*6C
$GNRMC,012113.00,A,4308.02288,N,14113.28324,E,0.006,,180119,,,A*6E
$GNRMC,012114.00,A,4308.02288,N,14113.28325,E,0.008,,180119,,,A*66
$GNRMC,012115.00,A,4308.02291,N,14113.28326,E,0.006,,180119,,,A*62
$GNRMC,012130.00,A,4308.02315,N,14113.28343,E,0.010,,180119,,,A*6C
$GNRMC,012131.00,A,4308.02314,N,14113.28341,E,0.012,,180119,,,A*6C
$GNRMC,012132.00,A,4308.02314,N,14113.28339,E,0.019,,180119,,,A*6B
$GNRMC,012133.00,A,4308.02314,N,14113.28337,E,0.009,,180119,,,A*65
$GNRMC,012134.00,A,4308.02313,N,14113.28334,E,0.010,,180119,,,A*6E
$GNRMC,012135.00,A,4308.02312,N,14113.28331,E,0.003,,180119,,,A*69
$GNRMC,012136.00,A,4308.02310,N,14113.28328,E,0.004,,180119,,,A*67
$GNRMC,012137.00,A,4308.02311,N,14113.28327,E,0.017,,180119,,,A*6A
$GNRMC,012138.00,A,4308.02312,N,14113.28326,E,0.010,,180119,,,A*60
$GNRMC,012153.00,A,4308.02293,N,14113.28289,E,0.010,,180119,,,A*61
$GNRMC,012154.00,A,4308.02291,N,14113.28286,E,0.006,,180119,,,A*6C
$GNRMC,012155.00,A,4308.02289,N,14113.28285,E,0.012,,180119,,,A*62
$GNRMC,012156.00,A,4308.02286,N,14113.28284,E,0.008,,180119,,,A*64
$GNRMC,012157.00,A,4308.02285,N,14113.28283,E,0.007,,180119,,,A*6E
$GNRMC,012158.00,A,4308.02283,N,14113.28282,E,0.008,,180119,,,A*69
$GNRMC,012159.00,A,4308.02283,N,14113.28281,E,0.012,,180119,,,A*60
$GNRMC,012200.00,A,4308.02282,N,14113.28278,E,0.008,,180119,,,A*63
$GNRMC,012215.00,A,4308.02284,N,14113.28256,E,0.002,,180119,,,A*67
$GNRMC,012216.00,A,4308.02283,N,14113.28254,E,0.007,,180119,,,A*64
$GNRMC,012217.00,A,4308.02284,N,14113.28253,E,0.010,,180119,,,A*63
$GNRMC,012218.00,A,4308.02282,N,14113.28252,E,0.008,,180119,,,A*62
$GNRMC,012219.00,A,4308.02283,N,14113.28252,E,0.030,,180119,,,A*69
$GNRMC,012220.00,A,4308.02282,N,14113.28252,E,0.011,,180119,,,A*61
$GNRMC,012221.00,A,4308.02281,N,14113.28255,E,0.010,,180119,,,A*65
$GNRMC,012222.00,A,4308.02277,N,14113.28261,E,0.067,,180119,,,A*68
$GNRMC,012223.00,A,4308.02265,N,14113.28286,E,1.111,101.09,180119,,,A*75
$GNRMC,012238.00,A,4308.00910,N,14113.31271,E,8.051,119.60,180119,,,A*7E
$GNRMC,012239.00,A,4308.00798,N,14113.31538,E,8.134,120.44,180119,,,A*75
$GNRMC,012240.00,A,4308.00683,N,14113.31804,E,8.122,120.62,180119,,,A*71
$GNRMC,012241.00,A,4308.00571,N,14113.32073,E,8.140,119.14,180119,,,A*7A
$GNRMC,012242.00,A,4308.00461,N,14113.32328,E,7.596,120.29,180119,,,A*70
$GNRMC,012243.00,A,4308.00352,N,14113.32572,E,7.490,122.43,180119,,,A*76
$GNRMC,012244.00,A,4308.00250,N,14113.32817,E,7.283,118.78,180119,,,A*79
$GNRMC,012245.00,A,4308.00161,N,14113.33050,E,6.764,117.92,180119,,,A*75
$GNRMC,012300.00,A,4308.00246,N,14113.32778,E,7.031,294.70,180119,,,A*7D
$GNRMC,012301.00,A,4308.00338,N,14113.32524,E,7.584,296.82,180119,,,A*7B
$GNRMC,012302.00,A,4308.00446,N,14113.32259,E,8.168,299.45,180119,,,A*76
$GNRMC,012303.00,A,4308.00562,N,14113.31986,E,8.477,300.76,180119,,,A*70
$GNRMC,012304.00,A,4308.00692,N,14113.31703,E,8.919,302.20,180119,,,A*7C
$GNRMC,012305.00,A,4308.00827,N,14113.31405,E,9.357,301.15,180119,,,A*7C
$GNRMC,012306.00,A,4308.00963,N,14113.31101,E,9.400,300.91,180119,,,A*77
$GNRMC,012307.00,A,4308.01087,N,14113.30806,E,8.916,299.84,180119,,,A*75
$GNRMC,012321.00,A,4308.02168,N,14113.28351,E,1.072,310.24,180119,,,A*7A
$GNRMC,012322.00,A,4308.02171,N,14113.28343,E,0.064,,180119,,,A*6E
$GNRMC,012323.00,A,4308.02171,N,14113.28345,E,0.006,,180119,,,A*6D
$GNRMC,012324.00,A,4308.02170,N,14113.28346,E,0.028,,180119,,,A*64
$GNRMC,012325.00,A,4308.02169,N,14113.28348,E,0.009,,180119,,,A*60
$GNRMC,012326.00,A,4308.02168,N,14113.28349,E,0.059,,180119,,,A*66
$GNRMC,012327.00,A,4308.02167,N,14113.28349,E,0.008,,180119,,,A*6C
$GNRMC,012328.00,A,4308.02167,N,14113.28350,E,0.014,,180119,,,A*66
$GNRMC,012343.00,A,4308.02132,N,14113.28386,E,0.018,,180119,,,A*6C
$GNRMC,012344.00,A,4308.02130,N,14113.28387,E,0.007,,180119,,,A*66
$GNRMC,012345.00,A,4308.02126,N,14113.28388,E,0.006,,180119,,,A*6E
$GNRMC,012346.00,A,4308.02126,N,14113.28388,E,0.016,,180119,,,A*6C
$GNRMC,012347.00,A,4308.02122,N,14113.28390,E,0.015,,180119,,,A*63
$GNRMC,012348.00,A,4308.02122,N,14113.28392,E,0.013,,180119,,,A*68
$GNRMC,012349.00,A,4308.02115,N,14113.28397,E,0.023,,180119,,,A*6B
$GNRMC,012350.00,A,4308.02112,N,14113.28400,E,0.005,,180119,,,A*69
$GNRMC,012405.00,A,4308.02073,N,14113.28417,E,0.016,,180119,,,A*6C
$GNRMC,012406.00,A,4308.02073,N,14113.28416,E,0.009,,180119,,,A*60
$GNRMC,012407.00,A,4308.02071,N,14113.28416,E,0.013,,180119,,,A*68
$GNRMC,012408.00,A,4308.02073,N,14113.28415,E,0.004,,180119,,,A*60
$GNRMC,012409.00,A,4308.02072,N,14113.28418,E,0.050,,180119,,,A*6C
$GNRMC,012410.00,A,4308.02068,N,14113.28426,E,0.518,256.63,180119,,,A*71
$GNRMC,012411.00,A,4308.02032,N,14113.28468,E,2.280,143.12,180119,,,A*70
$GNRMC,012412.00,A,4308.01967,N,14113.28538,E,3.280,142.27,180119,,,A*7B
$GNRMC,012413.00,A,4308.01881,N,14113.28632,E,4.369,141.13,180119,,,A*7F
$GNRMC,012428.00,A,4308.00439,N,14113.31708,E,7.088,118.55,180119,,,A*78
$GNRMC,012429.00,A,4308.00354,N,14113.31935,E,6.641,117.40,180119,,,A*7C
$GNRMC,012430.00,A,4308.00274,N,14113.32152,E,6.366,117.58,180119,,,A*74
$GNRMC,012431.00,A,4308.00196,N,14113.32365,E,6.300,116.96,180119,,,A*7F
$GNRMC,012432.00,A,4308.00121,N,14113.32577,E,6.215,116.01,180119,,,A*7E
$GNRMC,012433.00,A,4308.00079,N,14113.32797,E,5.969,101.94,180119,,,A*76
$GNRMC,012435.00,A,4308.00103,N,14113.33142,E,3.148,79.27,180119,,,A*48
$GNRMC,012450.00,A,4308.00493,N,14113.33723,E,4.071,32.70,180119,,,A*47
$GNRMC,012451.00,A,4308.00583,N,14113.33801,E,3.859,31.80,180119,,,A*40
$GNRMC,012452.00,A,4308.00669,N,14113.33880,E,3.751,32.14,180119,,,A*44
$GNRMC,012453.00,A,4308.00754,N,14113.33956,E,3.696,32.41,180119,,,A*4A
$GNRMC,012454.00,A,4308.00837,N,14113.34037,E,3.688,32.12,180119,,,A*47
$GNRMC,012455.00,A,4308.00925,N,14113.34120,E,3.945,31.40,180119,,,A*49
$GNRMC,012456.00,A,4308.01033,N,14113.34220,E,5.012,31.60,180119,,,A*49
$GNRMC,012457.00,A,4308.01153,N,14113.34337,E,5.438,33.88,180119,,,A*40
$GNRMC,012512.00,A,4308.02547,N,14113.33675,E,1.339,290.92,180119,,,A*74
$GNRMC,012513.00,A,4308.02559,N,14113.33638,E,0.850,291.59,180119,,,A*70
$GNRMC,012514.00,A,4308.02567,N,14113.33621,E,0.257,291.31,180119,,,A*71
$GNRMC,012515.00,A,4308.02568,N,14113.33621,E,0.244,206.84,180119,,,A*7D
$GNRMC,012516.00,A,4308.02559,N,14113.33646,E,1.145,123.88,180119,,,A*76
$GNRMC,012517.00,A,4308.02521,N,14113.33731,E,3.387,119.81,180119,,,A*77
$GNRMC,012518.00,A,4308.02467,N,14113.33859,E,4.279,119.17,180119,,,A*72
$GNRMC,012519.00,A,4308.02398,N,14113.34023,E,5.487,119.58,180119,,,A*7B
$GNRMC,012534.00,A,4308.01008,N,14113.37602,E,4.265,151.31,180119,,,A*73
$GNRMC,012535.00,A,4308.00915,N,14113.37649,E,3.298,159.06,180119,,,A*70
$GNRMC,012536.00,A,4308.00858,N,14113.37666,E,1.265,160.31,180119,,,A*78
$GNRMC,012537.00,A,4308.00850,N,14113.37675,E,0.073,,180119,,,A*6C
$GNRMC,012538.00,A,4308.00852,N,14113.37679,E,0.041,,180119,,,A*6C
$GNRMC,012539.00,A,4308.00852,N,14113.37679,E,0.010,,180119,,,A*69
$GNRMC,012540.00,A,4308.00852,N,14113.37681,E,0.013,,180119,,,A*63
$GNRMC,012541.00,A,4308.00853,N,14113.37683,E,0.007,,180119,,,A*64
$GNRMC,012556.00,A,4308.00856,N,14113.37691,E,0.003,,180119,,,A*60
$GNRMC,012557.00,A,4308.00856,N,14113.37691,E,0.020,,180119,,,A*60
$GNRMC,012558.00,A,4308.00857,N,14113.37691,E,0.033,,180119,,,A*6C
$GNRMC,012559.00,A,4308.00857,N,14113.37690,E,0.012,,180119,,,A*6F
$GNRMC,012600.00,A,4308.00858,N,14113.37691,E,0.003,,180119,,,A*6E
$GNRMC,012601.00,A,4308.00859,N,14113.37693,E,0.007,,180119,,,A*68
$GNRMC,012602.00,A,4308.00860,N,14113.37693,E,0.007,,180119,,,A*61
$GNRMC,012603.00,A,4308.00862,N,14113.37694,E,0.011,,180119,,,A*62
$GNRMC,012604.00,A,4308.00863,N,14113.37695,E,0.004,,180119,,,A*61
$GNRMC,012619.00,A,4308.00883,N,14113.37722,E,0.006,,180119,,,A*6C
$GNRMC,012620.00,A,4308.00883,N,14113.37722,E,0.002,,180119,,,A*62
$GNRMC,012621.00,A,4308.00884,N,14113.37723,E,0.010,,180119,,,A*66
$GNRMC,012622.00,A,4308.00892,N,14113.37727,E,0.242,,180119,,,A*63
$GNRMC,012623.00,A,4308.00897,N,14113.37727,E,0.101,,180119,,,A*63
$GNRMC,012624.00,A,4308.00890,N,14113.37729,E,0.344,160.63,180119,,,A*72
$GNRMC,012625.00,A,4308.00874,N,14113.37731,E,0.612,172.98,180119,,,A*71
$GNRMC,012626.00,A,4308.00865,N,14113.37728,E,0.086,,180119,,,A*6A
$GNRMC,012641.00,A,4308.00277,N,14113.37388,E,1.265,207.13,180119,,,A*7B
$GNRMC,012642.00,A,4308.00253,N,14113.37383,E,0.987,199.83,180119,,,A*7E
$GNRMC,012643.00,A,4308.00241,N,14113.37381,E,0.438,,180119,,,A*63
$GNRMC,012644.00,A,4308.00244,N,14113.37380,E,0.023,,180119,,,A*6E
$GNRMC,012645.00,A,4308.00251,N,14113.37384,E,0.026,,180119,,,A*6A
$GNRMC,012646.00,A,4308.00254,N,14113.37382,E,0.019,,180119,,,A*66
$GNRMC,012647.00,A,4308.00261,N,14113.37384,E,0.156,,180119,,,A*6D
$GNRMC,012648.00,A,4308.00269,N,14113.37385,E,0.086,,180119,,,A*67
$GNRMC,012649.00,A,4308.00272,N,14113.37387,E,0.078,,180119,,,A*6F
$GNRMC,012704.00,A,4308.00311,N,14113.37459,E,0.341,,180119,,,A*6E
$GNRMC,012705.00,A,4308.00347,N,14113.37486,E,1.305,309.92,180119,,,A*70
$GNRMC,012706.00,A,4308.00337,N,14113.37492,E,0.188,,180119,,,A*68
$GNRMC,012707.00,A,4308.00332,N,14113.37507,E,0.182,,180119,,,A*6B
$GNRMC,012708.00,A,4308.00337,N,14113.37533,E,0.144,,180119,,,A*6C
$GNRMC,012709.00,A,4308.00343,N,14113.37561,E,0.126,,180119,,,A*6D
$GNRMC,012710.00,A,4308.00356,N,14113.37580,E,0.158,,180119,,,A*67
$GNRMC,012711.00,A,4308.00374,N,14113.37583,E,0.102,,180119,,,A*6A
$GNRMC,012712.00,A,4308.00382,N,14113.37603,E,0.372,,180119,,,A*6E
                                                                       